school_id,school_name,district,county,school_type,grades_served,year,y_ela_prof,y_math_prof,y_chronic_abs,y_grad_4yr,Latitude,Longitude
05-016-0150-04-0000,,Palatine CCSD 15,Cook,,,2025,54.6,42.5,17.1,,,
05-016-0150-04-1011,Plum Grove Middle School,Palatine CCSD 15,Cook,Middle/Junior High School,8-Jun,2025,74.1,53.9,10.9,,40.305918014726,-87.8791539454
05-016-0150-04-1014,Carl Sandburg Middle School,Palatine CCSD 15,Cook,Middle/Junior High School,8-Jun,2025,52.0,19.1,20.4,,42.2679172,-88.0142376
05-016-0150-04-1016,Winston Campus Middle School,Palatine CCSD 15,Cook,Middle/Junior High School,8-Jun,2025,37.0,24.8,22.6,,42.11142,-88.02174
05-016-0150-04-1018,Walter R Sundling Middle School,Palatine CCSD 15,Cook,Middle/Junior High School,8-Jun,2025,36.6,25.8,22.3,,42.1295866,-88.0497376
05-016-0150-04-1020,Thomas Jefferson Middle School,Palatine CCSD 15,Cook,Middle/Junior High School,8-Jun,2025,79.5,62.0,10.7,,42.0627509,-88.1229708
05-016-0150-04-2001,Jane Addams Elem School,Palatine CCSD 15,Cook,Elementary School,K - 5,2025,32.6,27.1,21.4,,42.1239489,-88.0177243
05-016-0150-04-2003,Central Road Elem School,Palatine CCSD 15,Cook,Elementary School,PK - 5,2025,72.0,61.2,12.9,,42.0677339,-88.0161976
05-016-0150-04-2004,Marion Jordan Elem School,Palatine CCSD 15,Cook,Elementary School,K - 5,2025,67.3,68.9,8.4,,42.1113242,-88.073681
05-016-0150-04-2005,Kimball Hill Elem School,Palatine CCSD 15,Cook,Elementary School,PK - 5,2025,48.5,33.3,22.9,,42.08003,-88.01729
05-016-0150-04-2006,Hunting Ridge Elem School,Palatine CCSD 15,Cook,Elementary School,K - 5,2025,62.2,51.7,12.3,,42.0955387,-88.0701471
05-016-0150-04-2007,Lake Louise Elem School,Palatine CCSD 15,Cook,Elementary School,PK - 5,2025,32.1,23.4,25.2,,42.1194128,-88.00821
05-016-0150-04-2008,Lincoln Elementary School,Palatine CCSD 15,Cook,Elementary School,K - 5,2025,41.0,34.0,26.2,,42.13066,-88.03576
05-016-0150-04-2009,Stuart R Paddock School,Palatine CCSD 15,Cook,Elementary School,PK - 5,2025,62.0,57.6,11.6,,42.10826,-88.04999
05-016-0150-04-2010,Pleasant Hill Elem School,Palatine CCSD 15,Cook,Elementary School,K - 5,2025,64.4,70.4,6.8,,42.0972282,-88.0543684
05-016-0150-04-2013,Gray M Sanborn Elem School,Palatine CCSD 15,Cook,Elementary School,PK - 5,2025,41.0,35.6,24.7,,42.1121411,-88.0380843
05-016-0150-04-2015,Virginia Lake Elem School,Palatine CCSD 15,Cook,Elementary School,PK - 5,2025,42.4,36.7,20.7,,42.127791,-88.023019
05-016-0150-04-2018,Willow Bend Elem School,Palatine CCSD 15,Cook,Elementary School,K - 5,2025,46.6,36.9,15.4,,42.062285,-88.0191253
05-016-0150-04-2019,Winston Campus Elementary,Palatine CCSD 15,Cook,Elementary School,PK - 5,2025,,,,,42.1112858,-88.0213433
05-016-0150-04-2023,Frank C Whiteley Elem School,Palatine CCSD 15,Cook,Elementary School,K - 5,2025,64.9,61.9,8.4,,42.10253,-88.10396
05-016-0210-04-0000,,Wheeling CCSD 21,Cook,,,2025,39.1,32.9,21.5,,,
05-016-0210-04-1002,Cooper Middle School,Wheeling CCSD 21,Cook,Middle/Junior High School,8-Jun,2025,54.1,44.2,17.0,,42.14975,-87.98313
05-016-0210-04-1006,Oliver W Holmes Middle School,Wheeling CCSD 21,Cook,Middle/Junior High School,8-Jun,2025,26.4,13.8,24.8,,42.13499,-87.914
05-016-0210-04-1007,Jack London Middle School,Wheeling CCSD 21,Cook,Middle/Junior High School,8-Jun,2025,44.9,29.7,16.6,,42.1380386,-87.9425357
05-016-0210-04-2003,Eugene Field Elem School,Wheeling CCSD 21,Cook,Elementary School,K - 5,2025,27.3,21.2,23.8,,42.1405684,-87.9448195
05-016-0210-04-2004,Robert Frost Elem School,Wheeling CCSD 21,Cook,Elementary School,K - 5,2025,28.0,29.8,24.8,,42.10003,-87.89868
05-016-0210-04-2007,Joyce Kilmer Elem School,Wheeling CCSD 21,Cook,Elementary School,K - 5,2025,33.3,33.1,26.0,,42.142313,-87.9639816
05-016-0210-04-2009,Henry W Longfellow Elem School,Wheeling CCSD 21,Cook,Elementary School,K - 5,2025,50.6,55.1,17.0,,42.144955,-87.984038
05-016-0210-04-2010,Edgar A Poe Elem School,Wheeling CCSD 21,Cook,Elementary School,K - 5,2025,37.7,44.1,23.2,,42.12697,-87.98563
05-016-0210-04-2011,J W Riley Elem School,Wheeling CCSD 21,Cook,Elementary School,K - 5,2025,58.3,51.8,15.3,,42.12808,-87.96702
05-016-0210-04-2013,Booth Tarkington Elem School,Wheeling CCSD 21,Cook,Elementary School,PK - 5,2025,41.8,46.8,22.7,,42.1326498,-87.9508677
05-016-0210-04-2014,Mark Twain Elem School,Wheeling CCSD 21,Cook,Elementary School,K - 5,2025,25.5,20.3,28.1,,42.1297094,-87.9309168
05-016-0210-04-2015,Walt Whitman Elem School,Wheeling CCSD 21,Cook,Elementary School,PK - 5,2025,21.3,21.3,18.5,,42.137527,-87.909413
05-016-0230-02-0000,,Prospect Heights SD 23,Cook,,,2025,68.6,59.4,15.7,,,
05-016-0230-02-1002,MacArthur Middle School,Prospect Heights SD 23,Cook,Middle/Junior High School,8-Jun,2025,74.3,58.2,12.0,,42.1090137,-87.9492332
05-016-0230-02-2001,Dwight D Eisenhower Elem School,Prospect Heights SD 23,Cook,Elementary School,PK - 1,2025,,,18.8,,42.09607,-87.94484
05-016-0230-02-2004,Betsy Ross Elem School,Prospect Heights SD 23,Cook,Elementary School,3-Feb,2025,61.3,72.3,21.4,,42.1103881,-87.9469158
05-016-0230-02-2005,Anne Sullivan Elem School,Prospect Heights SD 23,Cook,Elementary School,5-Apr,2025,64.4,53.9,12.8,,42.108953,-87.949036
05-016-0250-02-0000,,Arlington Heights SD 25,Cook,,,2025,74.6,63.3,10.5,,,
05-016-0250-02-1014,South Middle School,Arlington Heights SD 25,Cook,Middle/Junior High School,8-Jun,2025,73.3,51.0,8.2,,42.0766,-87.9862
05-016-0250-02-1015,Thomas Middle School,Arlington Heights SD 25,Cook,Middle/Junior High School,8-Jun,2025,78.6,59.3,9.1,,42.1024279,-87.9789251
05-016-0250-02-2002,Dryden Elem School,Arlington Heights SD 25,Cook,Elementary School,K - 5,2025,73.8,65.4,11.0,,42.0701418,-87.9715604
05-016-0250-02-2004,Greenbrier Elem School,Arlington Heights SD 25,Cook,Elementary School,PK - 5,2025,70.5,76.7,16.3,,42.1197174,-87.9983738
05-016-0250-02-2005,Ivy Hill Elem School,Arlington Heights SD 25,Cook,Elementary School,PK - 5,2025,74.1,72.0,15.4,,42.1157243,-87.9720397
05-016-0250-02-2009,Olive-Mary Stitt School,Arlington Heights SD 25,Cook,Elementary School,K - 5,2025,76.1,72.6,9.3,,42.098934,-87.979285
05-016-0250-02-2011,Patton Elem School,Arlington Heights SD 25,Cook,Elementary School,K - 5,2025,81.3,77.6,7.8,,42.1067388,-87.9969883
05-016-0250-02-2016,Westgate Elem School,Arlington Heights SD 25,Cook,Elementary School,K - 5,2025,67.2,66.7,11.1,,42.0749901,-87.9983849
05-016-0250-02-2018,Windsor Elementary School,Arlington Heights SD 25,Cook,Elementary School,K - 5,2025,68.4,70.9,11.2,,42.0836785,-87.966318
05-016-0260-02-0000,,River Trails SD 26,Cook,,,2025,55.4,52.3,13.6,,,
05-016-0260-02-1006,River Trails Middle School,River Trails SD 26,Cook,Middle/Junior High School,8-Jun,2025,54.4,46.8,14.0,,42.0834806,-87.908974
05-016-0260-02-2001,Euclid Elem School,River Trails SD 26,Cook,Elementary School,PK - 5,2025,44.0,49.1,14.3,,32.799146,-97.186628
05-016-0260-02-2003,Indian Grove Elem School,River Trails SD 26,Cook,Elementary School,5-Jan,2025,65.1,65.1,10.7,,42.09085,-87.89944
05-016-0260-02-2004,Prairie Trails School,River Trails SD 26,Cook,Elementary School,PK - K,2025,,,21.4,,40.697631738367,-92.268763728125
05-016-0270-02-0000,,Northbrook ESD 27,Cook,,,2025,88.2,81.2,10.8,,,
05-016-0270-02-1005,Wood Oaks Jr High School,Northbrook ESD 27,Cook,Middle/Junior High School,8-Jun,2025,88.7,82.6,13.2,,42.130979,-87.831558
05-016-0270-02-2002,Hickory Point Elem School,Northbrook ESD 27,Cook,Elementary School,PK - 2,2025,,,9.4,,42.1428968,-87.8687052
05-016-0270-02-2004,Shabonee School,Northbrook ESD 27,Cook,Elementary School,5-Mar,2025,87.6,79.9,9.7,,42.13447,-87.85146
05-016-0280-02-0000,,Northbrook SD 28,Cook,,,2025,86.9,80.7,9.5,,,
05-016-0280-02-1004,Northbrook Junior High School,Northbrook SD 28,Cook,Middle/Junior High School,8-Jun,2025,88.9,80.1,10.8,,42.12475,-87.81645
05-016-0280-02-2002,Greenbriar Elem School,Northbrook SD 28,Cook,Elementary School,K - 5,2025,78.8,78.8,9.5,,42.12975,-87.8334
05-016-0280-02-2003,Meadowbrook Elem School,Northbrook SD 28,Cook,Elementary School,K - 5,2025,85.3,83.9,10.1,,42.1279375,-87.8200703
05-016-0280-02-2006,Westmoor Elem School,Northbrook SD 28,Cook,Elementary School,PK - 5,2025,89.9,81.0,6.2,,42.1316152,-87.8420644
05-016-0290-02-0000,,Sunset Ridge SD 29,Cook,,,2025,87.0,81.9,10.0,,,
05-016-0290-02-2001,Middlefork Primary School,Sunset Ridge SD 29,Cook,Elementary School,K - 3,2025,81.0,81.0,7.3,,42.1030298,-87.7799549
05-016-0290-02-2002,Sunset Ridge Elem School,Sunset Ridge SD 29,Cook,Elementary School,8-Apr,2025,88.3,82.1,12.4,,41.555278,-88.187778
05-016-0300-02-0000,,Northbrook/Glenview SD 30,Cook,,,2025,88.0,85.6,7.4,,,
05-016-0300-02-1001,Maple School,Northbrook/Glenview SD 30,Cook,Middle/Junior High School,8-Jun,2025,91.5,85.7,9.6,,42.109435720082,-87.834697781363
05-016-0300-02-2002,Willowbrook Elem School,Northbrook/Glenview SD 30,Cook,Elementary School,PK - 5,2025,84.7,84.7,4.4,,42.1015694,-87.8426181
05-016-0300-02-2003,Wescott Elementary School,Northbrook/Glenview SD 30,Cook,Elementary School,K - 5,2025,84.3,85.9,7.1,,42.1198,-87.8401
05-016-0310-02-0000,,West Northfield SD 31,Cook,,,2025,71.7,61.7,12.2,,,
05-016-0310-02-1001,Field School,West Northfield SD 31,Cook,Middle/Junior High School,8-Jun,2025,80.3,61.6,10.2,,42.09836,-87.87534
05-016-0310-02-2002,Henry Winkelman Elem School,West Northfield SD 31,Cook,Elementary School,PK - 5,2025,63.6,61.7,13.1,,42.09419,-87.85701
05-016-0340-04-0000,,Glenview CCSD 34,Cook,,,2025,76.9,62.9,12.3,,,
05-016-0340-04-1006,Attea Middle School,Glenview CCSD 34,Cook,Middle/Junior High School,8-Jun,2025,80.8,57.2,14.4,,42.088843,-87.8195801
05-016-0340-04-1007,Springman Middle School,Glenview CCSD 34,Cook,Middle/Junior High School,8-Jun,2025,75.3,57.0,11.6,,42.0635855,-87.8239808
05-016-0340-04-2001,Glen Grove Elem School,Glenview CCSD 34,Cook,Elementary School,5-Mar,2025,81.8,72.2,8.9,,42.074282,-87.852679
05-016-0340-04-2002,Henking Elem School,Glenview CCSD 34,Cook,Elementary School,PK - 2,2025,,,9.7,,42.0688,-87.8315
05-016-0340-04-2003,Hoffman Elem School,Glenview CCSD 34,Cook,Elementary School,5-Mar,2025,75.1,68.6,12.7,,42.0636813,-87.8087269
05-016-0340-04-2004,Lyon Elem School,Glenview CCSD 34,Cook,Elementary School,PK - 2,2025,,,12.8,,42.079145,-87.796301
05-016-0340-04-2005,Pleasant Ridge Elem School,Glenview CCSD 34,Cook,Elementary School,5-Mar,2025,71.5,67.4,11.6,,42.0863049,-87.7918729
05-016-0340-04-2008,Westbrook Elementary School,Glenview CCSD 34,Cook,Elementary School,PK - 2,2025,,,16.0,,42.0797652,-87.8379785
05-016-0350-02-0000,,Glencoe SD 35,Cook,,,2025,85.6,81.7,9.1,,,
05-016-0350-02-1001,Central School,Glencoe SD 35,Cook,Middle/Junior High School,8-May,2025,85.6,80.1,10.2,,42.13142,-87.76006
05-016-0350-02-2001,West School,Glencoe SD 35,Cook,Elementary School,4-Mar,2025,85.6,85.2,7.9,,42.137118,-87.776567
05-016-0350-02-2002,South Elem School,Glencoe SD 35,Cook,Elementary School,PK - 2,2025,,,8.4,,42.12419,-87.75117
05-016-0360-02-0000,,Winnetka SD 36,Cook,,,2025,83.8,79.8,7.7,,,
05-016-0360-02-1005,Carleton W Washburne School,Winnetka SD 36,Cook,Middle/Junior High School,8-Jul,2025,80.5,79.2,13.7,,42.10531,-87.75062
05-016-0360-02-2001,Crow Island Elem School,Winnetka SD 36,Cook,Elementary School,K - 4,2025,82.1,85.0,5.4,,42.1000802,-87.7460819
05-016-0360-02-2002,Greeley Elem School,Winnetka SD 36,Cook,Elementary School,K - 4,2025,87.8,87.0,5.8,,42.098374,-87.7212244
05-016-0360-02-2003,Hubbard Woods Elem School,Winnetka SD 36,Cook,Elementary School,K - 4,2025,86.5,87.3,5.0,,42.1141133,-87.7457993
05-016-0360-02-2004,The Skokie School,Winnetka SD 36,Cook,Elementary School,6-May,2025,85.3,73.1,8.3,,42.10528,-87.74711
05-016-0370-02-0000,,Avoca SD 37,Cook,,,2025,88.5,78.0,7.3,,,
05-016-0370-02-1001,Marie Murphy School,Avoca SD 37,Cook,Middle/Junior High School,PK - 8,2025,88.8,78.9,9.6,,42.084186,-87.748094
05-016-0370-02-2003,Avoca West Elem School,Avoca SD 37,Cook,Elementary School,K - 5,2025,88.2,76.9,5.6,,42.076582,-87.765684
05-016-0380-02-0000,,Kenilworth SD 38,Cook,,,2025,87.0,84.6,3.8,,,
05-016-0380-02-2001,The Joseph Sears School,Kenilworth SD 38,Cook,Elementary School,PK - 8,2025,87.0,84.6,3.8,,42.0895684,-87.7174464
05-016-0390-02-0000,,Wilmette SD 39,Cook,,,2025,85.7,77.1,5.7,,,
05-016-0390-02-1008,Wilmette Junior High School,Wilmette SD 39,Cook,Middle/Junior High School,8-Jul,2025,84.4,70.5,8.5,,42.0749943,-87.7404088
05-016-0390-02-2002,Central Elem School,Wilmette SD 39,Cook,Elementary School,K - 4,2025,83.0,84.6,5.7,,42.0769656,-87.7012567
05-016-0390-02-2003,Harper Elem School,Wilmette SD 39,Cook,Elementary School,K - 4,2025,79.1,79.3,,,42.0833156,-87.7362796
05-016-0390-02-2005,McKenzie Elem School,Wilmette SD 39,Cook,Elementary School,K - 4,2025,91.9,90.2,4.0,,42.0748128,-87.7131453
05-016-0390-02-2006,Romona Elem School,Wilmette SD 39,Cook,Elementary School,PK - 4,2025,85.5,82.7,5.8,,42.0739385,-87.7462329
05-016-0390-02-2007,Highcrest Middle School,Wilmette SD 39,Cook,Elementary School,6-May,2025,87.8,76.9,5.4,,42.072784,-87.732056
05-016-0540-04-0000,,Schaumburg CCSD 54,Cook,,,2025,68.7,54.2,20.1,,,
05-016-0540-04-1001,Jane Addams JHS,Schaumburg CCSD 54,Cook,Middle/Junior High School,8-Apr,2025,76.9,49.5,18.8,,42.012878,-88.12025
05-016-0540-04-1012,Robert Frost JHS,Schaumburg CCSD 54,Cook,Middle/Junior High School,8-Jul,2025,71.0,54.4,17.7,,42.005699,-88.088831
05-016-0540-04-1018,Dwight D Eisenhower JHS,Schaumburg CCSD 54,Cook,Middle/Junior High School,8-Jul,2025,70.0,42.5,23.8,,42.0262459,-88.0697036
05-016-0540-04-1019,Margaret Mead JHS,Schaumburg CCSD 54,Cook,Middle/Junior High School,8-Jul,2025,84.5,58.4,16.0,,42.028770228401,-88.080408789253
05-016-0540-04-1020,Helen Keller JHS,Schaumburg CCSD 54,Cook,Middle/Junior High School,8-Jun,2025,71.6,50.3,18.2,,42.024905856902,-88.077845052253
05-016-0540-04-2002,Buzz Aldrin Elem School,Schaumburg CCSD 54,Cook,Elementary School,K - 6,2025,51.1,49.7,19.9,,42.012595,-88.095504
05-016-0540-04-2003,Neil Armstrong Elem School,Schaumburg CCSD 54,Cook,Elementary School,K - 6,2025,63.2,51.9,23.2,,42.0503,-88.11674
05-016-0540-04-2005,Campanelli Elem School,Schaumburg CCSD 54,Cook,Elementary School,K - 6,2025,78.2,73.4,12.6,,42.01964,-88.12045
05-016-0540-04-2006,Winston Churchill Elem School,Schaumburg CCSD 54,Cook,Elementary School,K - 6,2025,63.5,47.1,20.9,,42.05503,-88.10007
05-016-0540-04-2007,Michael Collins Elem School,Schaumburg CCSD 54,Cook,Elementary School,K - 6,2025,70.2,69.1,14.7,,42.01997,-88.06935
05-016-0540-04-2008,Everett Dirksen Elementary Sch,Schaumburg CCSD 54,Cook,Elementary School,K - 6,2025,64.5,59.2,17.8,,42.0222789,-88.082618
05-016-0540-04-2009,Thomas Dooley Elem School,Schaumburg CCSD 54,Cook,Elementary School,K - 6,2025,85.7,78.3,14.6,,42.014477,-88.105061
05-016-0540-04-2010,Fairview Elem School,Schaumburg CCSD 54,Cook,Elementary School,K - 6,2025,72.5,63.4,21.9,,42.03947,-88.07118
05-016-0540-04-2011,Anne Fox Elem School,Schaumburg CCSD 54,Cook,Elementary School,K - 6,2025,71.3,54.5,29.8,,42.00919,-88.13368
05-016-0540-04-2013,Hanover Highlands Elem School,Schaumburg CCSD 54,Cook,Elementary School,K - 6,2025,62.1,47.7,25.8,,41.99892,-88.1398
05-016-0540-04-2015,Nathan Hale Elem School,Schaumburg CCSD 54,Cook,Elementary School,K - 6,2025,66.2,55.9,18.1,,42.00503,-88.11146
05-016-0540-04-2018,Lakeview Elem School,Schaumburg CCSD 54,Cook,Elementary School,K - 6,2025,62.8,43.5,29.1,,42.03919,-88.09452
05-016-0540-04-2019,MacArthur International Spanish Academy,Schaumburg CCSD 54,Cook,Elementary School,K - 6,2025,59.2,47.1,16.3,,42.059764,-88.1073058
05-016-0540-04-2022,John Muir Literacy Academy,Schaumburg CCSD 54,Cook,Elementary School,K - 6,2025,62.0,43.3,35.4,,42.0610114,-88.1250529
05-016-0540-04-2023,Adolph Link Elem School,Schaumburg CCSD 54,Cook,Elementary School,K - 6,2025,65.4,59.0,16.7,,42.00642,-88.03924
05-016-0540-04-2026,Albert Einstein Elem School,Schaumburg CCSD 54,Cook,Elementary School,K - 6,2025,50.8,41.1,17.3,,42.01475,-88.13591
05-016-0540-04-2027,Hoover Math and Science Academy,Schaumburg CCSD 54,Cook,Elementary School,K - 6,2025,77.7,63.4,19.2,,42.032243,-88.118117
05-016-0540-04-2028,Adlai Stevenson Elem School,Schaumburg CCSD 54,Cook,Elementary School,K - 6,2025,57.4,44.1,24.4,,41.99864,-88.04007
05-016-0540-04-2029,Frederick Nerge Elem School,Schaumburg CCSD 54,Cook,Elementary School,K - 6,2025,64.3,57.8,18.3,,41.9967322,-88.0684809
05-016-0540-04-2030,Enders-Salk Elem School,Schaumburg CCSD 54,Cook,Elementary School,K - 6,2025,64.9,52.9,23.8,,42.0328688,-88.1002467
05-016-0540-04-2031,Elizabeth Blackwell Elem School,Schaumburg CCSD 54,Cook,Elementary School,K - 6,2025,62.7,48.6,23.4,,42.031213,-88.131508
05-016-0540-04-2032,Lincoln Prairie School,Schaumburg CCSD 54,Cook,Elementary School,K - 8,2025,62.8,56.6,14.3,,42.06308,-88.03973
05-016-0540-04-3111,The District 54 Early Learning Center,Schaumburg CCSD 54,Cook,Special School,PK,2025,,,,,42.028714,-88.066744
05-016-0570-02-0000,,Mount Prospect SD 57,Cook,,,2025,65.2,57.7,11.9,,,
05-016-0570-02-1004,Lincoln Middle School,Mount Prospect SD 57,Cook,Middle/Junior High School,8-Jun,2025,60.4,55.6,14.5,,42.05955,-87.9475
05-016-0570-02-2002,Fairview Elem School,Mount Prospect SD 57,Cook,Elementary School,5-Feb,2025,68.6,60.3,10.3,,42.072327,-87.9465859
05-016-0570-02-2005,Lions Park Elem School,Mount Prospect SD 57,Cook,Elementary School,5-Feb,2025,72.2,59.4,10.6,,42.0563215,-87.9318448
05-016-0570-02-2008,Westbrook Early Learning Cntr,Mount Prospect SD 57,Cook,Elementary School,PK - 1,2025,,,9.6,,42.052437,-87.966636
05-016-0590-04-0000,,Comm Cons SD 59,Cook,,,2025,45.8,37.8,22.9,,,
05-016-0590-04-1010,Grove Jr High School,Comm Cons SD 59,Cook,Middle/Junior High School,8-Jun,2025,40.6,26.7,23.8,,41.914951,-88.209481
05-016-0590-04-1012,Holmes Jr High School,Comm Cons SD 59,Cook,Middle/Junior High School,8-Jun,2025,46.9,40.9,26.7,,41.914951,-88.209481
05-016-0590-04-1016,Friendship Jr High School,Comm Cons SD 59,Cook,Middle/Junior High School,8-Jun,2025,53.6,38.9,21.1,,43.983344840643,-69.331688931022
05-016-0590-04-2001,Brentwood Elem School,Comm Cons SD 59,Cook,Elementary School,K - 5,2025,46.5,40.8,14.8,,42.0456083,-87.9278532
05-016-0590-04-2002,Adm Richard E Byrd Elem School,Comm Cons SD 59,Cook,Elementary School,K - 5,2025,34.1,28.0,24.1,,41.7425588,-87.7458097
05-016-0590-04-2003,Clearmont Elem School,Comm Cons SD 59,Cook,Elementary School,K - 5,2025,54.0,50.5,22.4,,41.9999104,-87.988985
05-016-0590-04-2006,Devonshire School,Comm Cons SD 59,Cook,Elementary School,K - 5,2025,50.6,43.4,22.9,,42.02737,-87.92599
05-016-0590-04-2008,Forest View Elem School,Comm Cons SD 59,Cook,Elementary School,K - 5,2025,60.3,54.0,22.0,,42.0545473,-87.9670277
05-016-0590-04-2009,Robert Frost Elem School,Comm Cons SD 59,Cook,Elementary School,K - 5,2025,44.2,40.5,24.3,,42.099823,-87.898733
05-016-0590-04-2014,John Jay Elem School,Comm Cons SD 59,Cook,Elementary School,K - 5,2025,29.5,32.9,32.4,,42.041098,-87.968456
05-016-0590-04-2016,Juliette Low Elem School,Comm Cons SD 59,Cook,Elementary School,K - 5,2025,41.9,39.3,18.0,,42.0558745,-87.9875453
05-016-0590-04-2018,Rupley Elem School,Comm Cons SD 59,Cook,Elementary School,K - 5,2025,24.0,21.0,37.0,,42.0217,-87.98507
05-016-0590-04-2019,Salt Creek Elem School,Comm Cons SD 59,Cook,Elementary School,K - 5,2025,41.3,37.2,15.4,,42.00305,-87.999332
05-016-0590-04-2020,Ridge Family Center for Learning,Comm Cons SD 59,Cook,Elementary School,K - 5,2025,71.1,70.2,14.3,,31.977711512,34.979217692
05-016-0590-04-3002,The Early Learning Center,Comm Cons SD 59,Cook,Special School,PK,2025,,,,,42.052437,-87.966636
05-016-0620-04-0000,,CCSD 62,Cook,,,2025,59.2,49.0,21.2,,,
05-016-0620-04-1001,Algonquin Middle School,CCSD 62,Cook,Middle/Junior High School,8-Jun,2025,53.8,45.4,25.0,,42.1619501,-88.2820575
05-016-0620-04-1003,Chippewa Middle School,CCSD 62,Cook,Middle/Junior High School,8-Jun,2025,55.4,40.7,20.8,,42.0550597,-87.9078781
05-016-0620-04-2001,Iroquois Community School,CCSD 62,Cook,Elementary School,K - 8,2025,77.1,60.8,12.6,,42.0106013,-87.8785463
05-016-0620-04-2002,Central Elem School,CCSD 62,Cook,Elementary School,K - 5,2025,65.6,63.0,16.9,,40.385258,-90.1518
05-016-0620-04-2004,Cumberland Elem School,CCSD 62,Cook,Elementary School,K - 5,2025,79.0,70.3,12.9,,39.257522,-88.196523
05-016-0620-04-2005,Forest Elem School,CCSD 62,Cook,Elementary School,PK - 5,2025,69.1,60.6,12.7,,42.028038,-87.905524
05-016-0620-04-2008,North Elementary School,CCSD 62,Cook,Elementary School,K - 5,2025,42.3,35.9,35.0,,39.3997839,-87.6993294
05-016-0620-04-2009,Orchard Place Elem School,CCSD 62,Cook,Elementary School,K - 5,2025,38.6,34.6,20.4,,29.602496780035,-95.969544428355
05-016-0620-04-2010,Plainfield Elem School,CCSD 62,Cook,Elementary School,K - 5,2025,64.1,47.9,23.6,,42.0191148,-87.9025412
05-016-0620-04-2011,South Elem School,CCSD 62,Cook,Elementary School,K - 5,2025,53.1,47.6,19.3,,42.020062,-87.885959
05-016-0620-04-2012,Terrace Elem School,CCSD 62,Cook,Elementary School,K - 5,2025,70.4,63.5,16.2,,42.0389376,-87.9178478
05-016-0630-02-0000,,East Maine SD 63,Cook,,,2025,49.6,38.0,27.7,,,
05-016-0630-02-1003,Gemini Middle School,East Maine SD 63,Cook,Middle/Junior High School,8-Jun,2025,55.2,35.9,25.7,,42.04271,-87.83933
05-016-0630-02-2006,V H Nelson Elem School,East Maine SD 63,Cook,Elementary School,K - 5,2025,39.1,33.5,23.2,,42.04364,-87.82062
05-016-0630-02-2009,Mark Twain Elem School,East Maine SD 63,Cook,Elementary School,K - 5,2025,39.9,41.8,33.6,,43.527566,-96.7294116
05-016-0630-02-2010,Washington Elem School,East Maine SD 63,Cook,Elementary School,K - 5,2025,49.0,47.0,18.3,,42.05558,-87.8259
05-016-0630-02-2011,Melzer School,East Maine SD 63,Cook,Elementary School,K - 5,2025,58.3,48.1,26.4,,42.03336,-87.8834
05-016-0630-02-2012,Apollo Elem School,East Maine SD 63,Cook,Elementary School,K - 5,2025,37.1,30.5,37.9,,42.0642,-87.85757
05-016-0630-02-3001,Early Learning Center,East Maine SD 63,Cook,Special School,PK,2025,,,,,41.528504,-90.410472
05-016-0640-04-0000,,Park Ridge CCSD 64,Cook,,,2025,78.6,68.7,8.9,,,
05-016-0640-04-1006,Emerson Middle School,Park Ridge CCSD 64,Cook,Middle/Junior High School,8-Jun,2025,78.4,61.0,10.6,,42.0265676,-87.8334682
05-016-0640-04-1007,Lincoln Middle School,Park Ridge CCSD 64,Cook,Middle/Junior High School,8-Jun,2025,78.5,64.1,8.0,,42.007808,-87.843666
05-016-0640-04-2001,George B Carpenter Elem School,Park Ridge CCSD 64,Cook,Elementary School,K - 5,2025,82.1,80.7,7.0,,42.01503,-87.85062
05-016-0640-04-2004,Eugene Field Elem School,Park Ridge CCSD 64,Cook,Elementary School,K - 5,2025,78.8,72.1,7.5,,42.0210429,-87.8242502
05-016-0640-04-2005,Franklin Elementary School,Park Ridge CCSD 64,Cook,Elementary School,K - 5,2025,77.2,76.1,10.8,,42.031836,-87.857063
05-016-0640-04-2011,Theodore Roosevelt Elem School,Park Ridge CCSD 64,Cook,Elementary School,K - 5,2025,78.9,74.7,7.8,,41.9983,-87.83395
05-016-0640-04-2012,George Washington Elem School,Park Ridge CCSD 64,Cook,Elementary School,K - 5,2025,78.0,76.0,9.6,,42.005783,-87.846278
05-016-0640-04-3001,Jefferson School,Park Ridge CCSD 64,Cook,Special School,PK,2025,,,,,32.7062063,-103.1494231
05-016-0650-04-0000,,Evanston CCSD 65,Cook,,,2025,64.1,52.6,17.2,,,
05-016-0650-04-1002,Chute Middle School,Evanston CCSD 65,Cook,Middle/Junior High School,8-Jun,2025,66.1,39.7,21.0,,42.0262404,-87.6916711
05-016-0650-04-1007,Haven Middle School,Evanston CCSD 65,Cook,Middle/Junior High School,8-Jun,2025,67.8,53.1,17.2,,42.0615639,-87.6978951
05-016-0650-04-1012,Nichols Middle School,Evanston CCSD 65,Cook,Middle/Junior High School,8-Jun,2025,70.6,56.6,17.9,,42.037241,-87.6827685
05-016-0650-04-2004,Dawes Elementary School,Evanston CCSD 65,Cook,Elementary School,K - 5,2025,69.3,60.0,24.1,,42.025687,-87.700135
05-016-0650-04-2005,Dewey Elem School,Evanston CCSD 65,Cook,Elementary School,K - 5,2025,74.0,72.7,14.7,,42.045773,-87.691215
05-016-0650-04-2009,Lincoln Elem School,Evanston CCSD 65,Cook,Elementary School,K - 5,2025,61.2,54.8,11.9,,42.034553,-87.675699
05-016-0650-04-2010,Lincolnwood Elem School,Evanston CCSD 65,Cook,Elementary School,K - 5,2025,59.6,66.0,11.6,,42.0601486,-87.7094566
05-016-0650-04-2014,Oakton Elem School,Evanston CCSD 65,Cook,Elementary School,K - 5,2025,50.5,47.4,23.4,,42.0261949,-87.6861704
05-016-0650-04-2015,Orrington Elem School,Evanston CCSD 65,Cook,Elementary School,K - 5,2025,74.6,75.4,6.9,,42.065652,-87.679855
05-016-0650-04-2019,Walker Elem School,Evanston CCSD 65,Cook,Elementary School,K - 5,2025,61.2,52.1,14.2,,42.0475552,-87.7185361
05-016-0650-04-2020,Washington Elem School,Evanston CCSD 65,Cook,Elementary School,K - 5,2025,58.1,47.7,15.8,,35.519838268072,-77.004222271653
05-016-0650-04-2021,Willard Elem School,Evanston CCSD 65,Cook,Elementary School,K - 5,2025,63.1,65.1,12.8,,42.066873,-87.717023
05-016-0650-04-2022,Dr ML King Jr Literary & Fine Arts Sch,Evanston CCSD 65,Cook,Elementary School,K - 8,2025,58.4,44.6,17.1,,42.0436898,-87.7080891
05-016-0650-04-2023,Kingsley Elementary School,Evanston CCSD 65,Cook,Elementary School,K - 5,2025,64.2,56.1,16.4,,42.06,-87.69594
05-016-0650-04-2024,Dr Bessie Rhodes Sch Global Studies,Evanston CCSD 65,Cook,Elementary School,K - 8,2025,31.4,22.8,26.4,,42.0521566,-87.6878665
05-016-0650-04-3020,Joseph E Hill Education Center,Evanston CCSD 65,Cook,Special School,PK,2025,,,,,42.0521566,-87.6878665
05-016-0670-02-0000,,Golf ESD 67,Cook,,,2025,60.0,60.6,17.2,,,
05-016-0670-02-1002,Golf Middle School,Golf ESD 67,Cook,Middle/Junior High School,8-May,2025,62.1,59.9,20.1,,42.05253,-87.79867
05-016-0670-02-2003,Hynes Elem School,Golf ESD 67,Cook,Elementary School,PK - 4,2025,55.0,62.1,14.1,,42.04546,-87.80326
05-016-0680-02-0000,,Skokie SD 68,Cook,,,2025,58.8,43.2,18.5,,,
05-016-0680-02-1002,Old Orchard Jr High School,Skokie SD 68,Cook,Middle/Junior High School,PK - 8,2025,63.0,41.0,21.4,,42.026307,-87.754692
05-016-0680-02-2001,Devonshire Elem School,Skokie SD 68,Cook,Elementary School,K - 5,2025,47.2,39.1,22.3,,42.0451048,-87.7378356
05-016-0680-02-2004,Jane Stenson School,Skokie SD 68,Cook,Elementary School,K - 5,2025,53.0,41.6,16.8,,42.0485065,-87.7584175
05-016-0680-02-2005,Highland Elementary School,Skokie SD 68,Cook,Elementary School,K - 5,2025,65.8,57.9,9.6,,42.0574971,-87.7281863
05-016-0690-02-0000,,Skokie SD 69,Cook,,,2025,44.2,36.7,22.6,,,
05-016-0690-02-1003,Lincoln Jr High School,Skokie SD 69,Cook,Middle/Junior High School,PK - 8,2025,43.6,31.3,25.1,,41.340087,-89.096739
05-016-0690-02-2001,Thomas Edison Elem School,Skokie SD 69,Cook,Elementary School,PK - 5,2025,44.8,41.7,16.8,,42.0301206,-87.7653547
05-016-0690-02-2004,Madison Elem School,Skokie SD 69,Cook,Elementary School,PK - 2,2025,,,26.5,,42.0323387,-87.7553553
05-016-0700-02-0000,,Morton Grove SD 70,Cook,,,2025,75.4,67.4,13.1,,,
05-016-0700-02-2003,Park View Elem School,Morton Grove SD 70,Cook,Elementary School,PK - 8,2025,75.4,67.4,13.1,,42.0453929,-87.7813136
05-016-0710-02-0000,,Niles ESD 71,Cook,,,2025,60.5,43.0,11.3,,,
05-016-0710-02-2001,Clarence E Culver School,Niles ESD 71,Cook,Elementary School,PK - 8,2025,60.5,43.0,11.3,,42.0259,-87.7993
05-016-0720-02-0000,,Fairview SD 72,Cook,,,2025,75.4,56.7,13.8,,,
05-016-0720-02-2002,Fairview South Elementary School,Fairview SD 72,Cook,Elementary School,PK - 8,2025,75.4,56.7,13.8,,42.072327,-87.9465859
05-016-0730-02-0000,,East Prairie SD 73,Cook,,,2025,73.2,53.4,15.4,,,
05-016-0730-02-2001,East Prairie Elem School,East Prairie SD 73,Cook,Elementary School,PK - 8,2025,73.2,53.4,15.4,,36.778498,-89.376407
05-016-0735-02-0000,,Skokie SD 73-5,Cook,,,2025,71.7,49.1,16.7,,,
05-016-0735-02-1003,Oliver McCracken Middle School,Skokie SD 73-5,Cook,Middle/Junior High School,8-Jun,2025,78.7,45.3,16.0,,42.0270165,-87.7266386
05-016-0735-02-2002,John Middleton Elem School,Skokie SD 73-5,Cook,Elementary School,5-Jan,2025,64.2,53.1,16.8,,42.0321892,-87.716119
05-016-0735-02-2003,Elizabeth Meyer School,Skokie SD 73-5,Cook,Elementary School,PK - K,2025,,,18.2,,42.0285,-87.7345
05-016-0740-02-0000,,Lincolnwood SD 74,Cook,,,2025,72.8,46.0,21.4,,,
05-016-0740-02-1001,Lincoln Hall Middle School,Lincolnwood SD 74,Cook,Middle/Junior High School,8-Jun,2025,77.7,46.1,21.7,,42.0056755,-87.7283734
05-016-0740-02-2003,Rutledge Hall Elem School,Lincolnwood SD 74,Cook,Elementary School,5-Mar,2025,67.5,45.9,20.8,,42.0057174,-87.7264089
05-016-0740-02-2004,Todd Hall Elem School,Lincolnwood SD 74,Cook,Elementary School,PK - 2,2025,,,21.9,,42.00716,-87.72757
05-016-2020-17-0000,,Evanston Twp HSD 202,Cook,,,2025,68.7,55.1,25.4,93.9,,
05-016-2020-17-0001,Evanston Twp High School,Evanston Twp HSD 202,Cook,High School,12-Sep,2025,68.7,55.1,25.4,93.9,42.04642,-87.70061
05-016-2030-17-0000,,New Trier Twp HSD 203,Cook,,,2025,87.7,86.1,13.0,97.5,,
05-016-2030-17-0001,New Trier Township H S Winnetka,New Trier Twp HSD 203,Cook,High School,12-Oct,2025,87.7,86.1,15.4,97.5,42.10114,-87.74444
05-016-2030-17-0002,New Trier Township H S Northfield,New Trier Twp HSD 203,Cook,High School,9,2025,,,5.5,,42.0901,-87.7647
05-016-2070-17-0000,,Maine Township HSD 207,Cook,,,2025,64.4,51.0,33.3,93.5,,
05-016-2070-17-0001,Maine East High School,Maine Township HSD 207,Cook,High School,12-Sep,2025,59.3,43.1,37.4,93.6,42.03798,-87.85533
05-016-2070-17-0003,Maine South High School,Maine Township HSD 207,Cook,High School,12-Sep,2025,73.3,65.2,26.8,95.3,42.00086,-87.85284
05-016-2070-17-0004,Maine West High School,Maine Township HSD 207,Cook,High School,12-Sep,2025,57.5,39.7,37.6,91.2,42.02114,-87.90673
05-016-2110-17-0000,,Township HSD 211,Cook,,,2025,62.8,56.1,19.2,93.1,,
05-016-2110-17-0001,J B Conant High School,Township HSD 211,Cook,High School,12-Sep,2025,69.3,64.6,17.7,94.7,42.03642,-88.06285
05-016-2110-17-0002,Wm Fremd High School,Township HSD 211,Cook,High School,12-Sep,2025,75.6,71.8,11.4,94.7,32.000835,-102.085861
05-016-2110-17-0003,Palatine High School,Township HSD 211,Cook,High School,12-Sep,2025,50.9,39.8,28.5,90.2,42.095745275618,-88.0384910644
05-016-2110-17-0004,Schaumburg High School,Township HSD 211,Cook,High School,12-Sep,2025,58.7,55.0,17.5,92.4,42.028303,-88.1071165
05-016-2110-17-0006,Hoffman Estates High School,Township HSD 211,Cook,High School,12-Sep,2025,57.0,45.7,22.1,93.5,42.030349248804,-88.09260571175
05-016-2140-17-0000,,Township HSD 214,Cook,,,2025,65.3,52.5,26.0,92.8,,
05-016-2140-17-0002,Elk Grove High School,Township HSD 214,Cook,High School,12-Sep,2025,49.2,35.6,27.7,91.3,31.977711512,34.979217692
05-016-2140-17-0004,John Hersey High School,Township HSD 214,Cook,High School,12-Sep,2025,78.0,70.3,18.6,97.4,42.1027523,-87.9594102
05-016-2140-17-0005,Prospect High School,Township HSD 214,Cook,High School,12-Sep,2025,83.3,68.3,14.3,94.5,42.07919,-87.95035
05-016-2140-17-0006,Wheeling High School,Township HSD 214,Cook,High School,12-Sep,2025,47.9,33.2,35.4,90.6,42.12614,-87.9384
05-016-2140-17-0007,Rolling Meadows High School,Township HSD 214,Cook,High School,12-Sep,2025,63.3,46.1,33.6,90.6,42.0663253,-88.0161362
05-016-2140-17-0008,Buffalo Grove High School,Township HSD 214,Cook,High School,12-Sep,2025,65.5,56.4,29.2,92.0,42.14104,-87.99833
05-016-2190-17-0000,,Niles Twp HSD 219,Cook,,,2025,64.3,47.5,29.0,88.6,,
05-016-2190-17-0002,Niles North High School,Niles Twp HSD 219,Cook,High School,12-Sep,2025,65.1,48.0,30.6,90.6,42.05975,-87.75395
05-016-2190-17-0003,Niles West High School,Niles Twp HSD 219,Cook,High School,12-Sep,2025,63.8,47.2,27.7,87.1,42.02503,-87.77089
05-016-2250-17-0000,,Glenbrook HSD 225,Cook,,,2025,84.0,79.6,16.7,95.7,,
05-016-2250-17-0001,Glenbrook North High School,Glenbrook HSD 225,Cook,High School,12-Sep,2025,88.6,85.9,13.1,95.7,42.1112288,-87.8344863
05-016-2250-17-0002,Glenbrook South High School,Glenbrook HSD 225,Cook,High School,12-Sep,2025,80.7,75.1,19.2,95.7,42.0894802,-87.8511383
06-016-0780-02-0000,,Rosemont ESD 78,Cook,,,2025,55.2,36.0,8.2,,,
06-016-0780-02-2001,Rosemont Elem School,Rosemont ESD 78,Cook,Elementary School,PK - 8,2025,55.2,36.0,8.2,,41.9956717,-87.8621634
06-016-0790-02-0000,,Pennoyer SD 79,Cook,,,2025,54.2,36.7,15.5,,,
06-016-0790-02-2001,Pennoyer Elem School,Pennoyer SD 79,Cook,Elementary School,PK - 8,2025,54.2,36.7,15.5,,41.974329,-87.837627
06-016-0800-02-0000,,Norridge SD 80,Cook,,,2025,68.4,44.7,14.4,,,
06-016-0800-02-1001,J Giles Elem School,Norridge SD 80,Cook,Middle/Junior High School,8-May,2025,69.5,32.9,16.2,,41.957538,-87.816467
06-016-0800-02-2002,J Leigh Elem School,Norridge SD 80,Cook,Elementary School,PK - 4,2025,66.1,67.4,12.8,,41.9653345,-87.8312704
06-016-0810-02-0000,,Schiller Park SD 81,Cook,,,2025,55.4,37.6,18.9,,,
06-016-0810-02-1001,Lincoln Middle School,Schiller Park SD 81,Cook,Middle/Junior High School,8-Jun,2025,54.4,31.8,21.1,,41.95281,-87.86923
06-016-0810-02-2001,John F Kennedy Elem School,Schiller Park SD 81,Cook,Elementary School,PK - 3,2025,47.5,52.2,18.2,,41.9499957,-87.8770749
06-016-0810-02-2003,Washington Elem School,Schiller Park SD 81,Cook,Elementary School,5-Apr,2025,61.1,40.8,16.4,,41.967019,-87.868135
06-016-0830-02-0000,,Mannheim SD 83,Cook,,,2025,42.3,23.5,18.4,,,
06-016-0830-02-1003,Mannheim Middle School,Mannheim SD 83,Cook,Middle/Junior High School,8-Jun,2025,40.2,19.1,21.9,,40.1755853,-76.3872404
06-016-0830-02-2002,Scott Elementary School,Mannheim SD 83,Cook,Elementary School,K - 5,2025,39.0,25.8,21.0,,41.9204394,-87.8752288
06-016-0830-02-2004,Roy Elem School,Mannheim SD 83,Cook,Elementary School,K - 5,2025,49.2,25.4,11.1,,41.9190246,-87.8984081
06-016-0830-02-2005,Westdale Elem School,Mannheim SD 83,Cook,Elementary School,K - 5,2025,42.7,32.8,18.8,,41.9283145,-87.9073189
06-016-0830-02-3002,Mannheim Early Childhood Center,Mannheim SD 83,Cook,Special School,PK,2025,,,,,41.9285,-87.9074
06-016-0840-02-0000,,Franklin Park SD 84,Cook,,,2025,64.1,44.4,16.0,,,
06-016-0840-02-1002,Hester Jr High School,Franklin Park SD 84,Cook,Middle/Junior High School,8-Jun,2025,62.7,36.8,20.3,,41.9300214,-87.8666074
06-016-0840-02-2003,North Elem School,Franklin Park SD 84,Cook,Elementary School,PK - 5,2025,63.2,53.8,10.7,,41.9387791,-87.8634078
06-016-0840-02-2004,Dan H Pietrini Elem School,Franklin Park SD 84,Cook,Elementary School,PK - 5,2025,51.9,38.1,13.6,,41.9226,-87.8692
06-016-0840-02-2005,Passow Elementary School,Franklin Park SD 84,Cook,Elementary School,PK - 5,2025,76.5,61.7,14.9,,41.9303287,-87.8680206
06-016-0845-02-0000,,Rhodes SD 84-5,Cook,,,2025,42.4,22.6,20.2,,,
06-016-0845-02-2001,Rhodes Elem School,Rhodes SD 84-5,Cook,Elementary School,PK - 8,2025,42.4,22.6,20.2,,46.353111932389,1.423499302314
06-016-0855-02-0000,,River Grove SD 85-5,Cook,,,2025,59.1,35.3,24.3,,,
06-016-0855-02-2001,River Grove Elem School,River Grove SD 85-5,Cook,Elementary School,PK - 8,2025,59.1,35.3,24.3,,41.92809,-87.83673
06-016-0860-02-0000,,Union Ridge SD 86,Cook,,,2025,69.8,51.6,13.7,,,
06-016-0860-02-2001,Union Ridge Elem School,Union Ridge SD 86,Cook,Elementary School,PK - 8,2025,69.8,51.6,13.7,,41.9660521,-87.7988336
06-016-0870-02-0000,,Berkeley SD 87,Cook,,,2025,32.6,24.0,21.3,,,
06-016-0870-02-1005,MacArthur Middle School,Berkeley SD 87,Cook,Middle/Junior High School,8-Jun,2025,31.7,18.3,22.8,,41.8908486,-87.903398
06-016-0870-02-1006,Northlake Middle School,Berkeley SD 87,Cook,Middle/Junior High School,8-Jun,2025,35.5,22.2,16.4,,41.9033597,-87.902055
06-016-0870-02-2003,Jefferson Primary School,Berkeley SD 87,Cook,Elementary School,PK - 2,2025,,,32.4,,37.87861,-122.28495
06-016-0870-02-2007,J W Riley Intermediate School,Berkeley SD 87,Cook,Elementary School,5-Mar,2025,35.4,33.4,18.5,,41.904535,-87.902753
06-016-0870-02-2008,Sunnyside Intermediate School,Berkeley SD 87,Cook,Elementary School,5-Mar,2025,28.1,23.3,20.8,,41.8915292,-87.904244
06-016-0870-02-2010,Whittier Primary School,Berkeley SD 87,Cook,Elementary School,PK - 2,2025,,,17.1,,41.912444,-87.8913108
06-016-0880-02-0000,,Bellwood SD 88,Cook,,,2025,27.7,15.9,26.9,,,
06-016-0880-02-1007,Roosevelt Middle School,Bellwood SD 88,Cook,Middle/Junior High School,8-Jun,2025,22.7,10.0,32.8,,41.885267,-87.86457
06-016-0880-02-2001,Grant Elem School,Bellwood SD 88,Cook,Elementary School,K - 5,2025,31.3,21.1,26.6,,41.898683,-87.8756688
06-016-0880-02-2003,Lincoln Elementary School,Bellwood SD 88,Cook,Elementary School,K - 5,2025,33.8,26.8,24.0,,41.873901,-87.875177
06-016-0880-02-2005,McKinley Elem School,Bellwood SD 88,Cook,Elementary School,K - 5,2025,34.5,20.8,20.4,,41.8851952,-87.8740404
06-016-0880-02-2006,Thurgood Marshall Elem School,Bellwood SD 88,Cook,Elementary School,K - 5,2025,29.0,16.1,24.2,,41.886134,-87.864466
06-016-0880-02-2009,Grant Primary,Bellwood SD 88,Cook,Elementary School,PK,2025,,,,,41.9058218,-87.8772954
06-016-0880-02-3003,Early Childhood Cntr/Lincoln Primary,Bellwood SD 88,Cook,Special School,PK,2025,,,,,41.8764446,-87.8769498
06-016-0890-02-0000,,Maywood-Melrose Park-Broadview 89,Cook,,,2025,42.7,22.0,26.7,,,
06-016-0890-02-1001,Irving Middle School,Maywood-Melrose Park-Broadview 89,Cook,Middle/Junior High School,8-May,2025,27.8,9.9,41.7,,41.8801315,-87.8532206
06-016-0890-02-1002,Stevenson Middle School,Maywood-Melrose Park-Broadview 89,Cook,Middle/Junior High School,8-Jun,2025,53.3,21.8,21.2,,41.903619,-87.858751
06-016-0890-02-2001,Jane Addams Elem School,Maywood-Melrose Park-Broadview 89,Cook,Elementary School,PK - 5,2025,55.4,48.2,17.8,,41.9004547,-87.8453813
06-016-0890-02-2002,Emerson Elem School,Maywood-Melrose Park-Broadview 89,Cook,Elementary School,PK - 5,2025,35.0,11.3,38.0,,41.8831176,-87.8372192
06-016-0890-02-2003,Garfield Elem School,Maywood-Melrose Park-Broadview 89,Cook,Elementary School,PK - 5,2025,34.0,10.8,29.0,,41.8741,-87.844
06-016-0890-02-2006,Lincoln Elem School,Maywood-Melrose Park-Broadview 89,Cook,Elementary School,PK - 5,2025,38.3,34.2,21.6,,41.8939541,-87.8437328
06-016-0890-02-2007,Melrose Park Elem School,Maywood-Melrose Park-Broadview 89,Cook,Elementary School,PK - 5,2025,41.0,26.1,22.9,,41.8931737,-87.8547459
06-016-0890-02-2008,Roosevelt Elem School,Maywood-Melrose Park-Broadview 89,Cook,Elementary School,PK - 5,2025,53.8,31.3,28.3,,41.8685,-87.8502
06-016-0890-02-2012,Washington Dual Language Academy,Maywood-Melrose Park-Broadview 89,Cook,Elementary School,PK - 8,2025,56.8,34.0,20.9,,41.8828,-87.8471
06-016-0900-02-0000,,River Forest SD 90,Cook,,,2025,86.4,75.7,8.0,,,
06-016-0900-02-1002,Roosevelt School,River Forest SD 90,Cook,Middle/Junior High School,8-May,2025,84.2,72.4,10.2,,41.8925431,-87.8141075
06-016-0900-02-2001,Lincoln Elem School,River Forest SD 90,Cook,Elementary School,PK - 4,2025,93.9,84.7,5.1,,41.8889453,-87.8189968
06-016-0900-02-2005,Willard Elem School,River Forest SD 90,Cook,Elementary School,PK - 4,2025,87.4,80.7,6.6,,41.902971,-87.8171267
06-016-0910-02-0000,,Forest Park SD 91,Cook,,,2025,54.1,30.5,27.3,,,
06-016-0910-02-1001,Forest Park Middle School,Forest Park SD 91,Cook,Middle/Junior High School,8-Jun,2025,58.2,25.4,27.3,,41.869828,-87.812005
06-016-0910-02-2001,Betsy Ross Elem School,Forest Park SD 91,Cook,Elementary School,K - 2,2025,,,25.0,,41.5479178,-88.0552222
06-016-0910-02-2003,Field Stevenson Elem School,Forest Park SD 91,Cook,Elementary School,5-Mar,2025,50.3,35.1,26.5,,41.86938,-87.81181
06-016-0910-02-2004,Garfield Elem School,Forest Park SD 91,Cook,Elementary School,PK - 2,2025,,,32.5,,41.8765337,-87.8096442
06-016-0920-02-0000,,Lindop SD 92,Cook,,,2025,64.6,26.5,17.0,,,
06-016-0920-02-2001,Lindop Elem School,Lindop SD 92,Cook,Elementary School,PK - 8,2025,64.6,26.5,17.0,,40.338673,-111.715032
06-016-0925-02-0000,,Westchester SD 92-5,Cook,,,2025,52.6,38.8,15.2,,,
06-016-0925-02-1001,Westchester Middle School,Westchester SD 92-5,Cook,Middle/Junior High School,8-Jun,2025,64.9,38.2,18.0,,41.8556957,-87.8716471
06-016-0925-02-2002,Westchester Intermediate School,Westchester SD 92-5,Cook,Elementary School,5-Mar,2025,41.3,39.4,12.5,,41.8551345,-87.894244
06-016-0925-02-2003,Westchester Primary School,Westchester SD 92-5,Cook,Elementary School,PK - 2,2025,,,15.4,,41.8433833,-87.8891054
06-016-0930-02-0000,,Hillside SD 93,Cook,,,2025,42.2,23.6,20.1,,,
06-016-0930-02-2001,Hillside Elem School,Hillside SD 93,Cook,Elementary School,PK - 8,2025,42.2,23.6,20.1,,41.8704,-87.9034
06-016-0940-02-0000,,Komarek SD 94,Cook,,,2025,55.9,32.3,14.2,,,
06-016-0940-02-2001,Komarek Elem School,Komarek SD 94,Cook,Elementary School,PK - 8,2025,55.9,32.3,14.2,,41.84642,-87.847
06-016-0950-02-0000,,Brookfield Lagrange Park SD 95,Cook,,,2025,68.6,40.7,15.0,,,
06-016-0950-02-1001,S E Gross  Middle School,Brookfield Lagrange Park SD 95,Cook,Middle/Junior High School,PK - 8,2025,74.9,33.9,16.4,,41.826084,-87.851779
06-016-0950-02-2002,Brook Park Elem School,Brookfield Lagrange Park SD 95,Cook,Elementary School,K - 5,2025,62.6,47.1,14.3,,41.8368347,-87.8557494
06-016-0960-02-0000,,Riverside SD 96,Cook,,,2025,81.6,71.6,12.4,,,
06-016-0960-02-1004,L J Hauser Jr High School,Riverside SD 96,Cook,Middle/Junior High School,8-Jun,2025,86.0,66.9,16.0,,41.8303,-87.8216
06-016-0960-02-2001,A F Ames Elem School,Riverside SD 96,Cook,Elementary School,PK - 5,2025,79.4,79.9,11.7,,41.840322,-87.8189305
06-016-0960-02-2002,Blythe Park Elem School,Riverside SD 96,Cook,Elementary School,PK - 5,2025,79.8,75.2,7.9,,41.8363,-87.8077
06-016-0960-02-2003,Central Elem School,Riverside SD 96,Cook,Elementary School,PK - 5,2025,75.1,74.7,11.3,,41.8294814,-87.8207141
06-016-0960-02-2005,Hollywood Elem School,Riverside SD 96,Cook,Elementary School,PK - 5,2025,71.4,71.4,10.0,,41.82892,-87.83422
06-016-0970-02-0000,,Oak Park ESD 97,Cook,,,2025,71.9,60.2,14.4,,,
06-016-0970-02-1003,Gwendolyn Brooks Middle School,Oak Park ESD 97,Cook,Middle/Junior High School,8-Jun,2025,72.9,54.5,19.3,,41.882,-87.797778
06-016-0970-02-1004,Percy Julian Middle School,Oak Park ESD 97,Cook,Middle/Junior High School,8-Jun,2025,68.9,50.5,17.8,,41.8811131,-87.7838933
06-016-0970-02-2001,William Beye Elem School,Oak Park ESD 97,Cook,Elementary School,K - 5,2025,74.7,66.8,10.6,,41.8909257,-87.7827132
06-016-0970-02-2003,William Hatch Elem School,Oak Park ESD 97,Cook,Elementary School,PK - 5,2025,67.6,65.5,11.8,,41.9047925,-87.783163
06-016-0970-02-2005,Oliver W Holmes Elem School,Oak Park ESD 97,Cook,Elementary School,K - 5,2025,70.9,61.3,13.8,,41.89531,-87.79756
06-016-0970-02-2006,Irving Elem School,Oak Park ESD 97,Cook,Elementary School,K - 5,2025,71.8,69.6,9.6,,41.86837,-87.78367
06-016-0970-02-2007,Abraham Lincoln Elem School,Oak Park ESD 97,Cook,Elementary School,K - 5,2025,70.6,62.2,10.1,,41.8681481,-87.7956624
06-016-0970-02-2008,Longfellow Elem School,Oak Park ESD 97,Cook,Elementary School,PK - 5,2025,73.2,66.0,16.5,,41.875838,-87.782191
06-016-0970-02-2009,Horace Mann Elem School,Oak Park ESD 97,Cook,Elementary School,K - 5,2025,81.4,83.8,9.1,,41.9025881,-87.7984945
06-016-0970-02-2010,Whittier Elem School,Oak Park ESD 97,Cook,Elementary School,PK - 5,2025,74.1,68.8,16.4,,41.8989105,-87.7820046
06-016-0980-02-0000,,Berwyn North SD 98,Cook,,,2025,54.4,32.0,23.4,,,
06-016-0980-02-1004,Lincoln Middle School,Berwyn North SD 98,Cook,Middle/Junior High School,8-Jun,2025,59.5,25.2,24.8,,45.920373223517,-89.260174902193
06-016-0980-02-2001,Prairie Oak School,Berwyn North SD 98,Cook,Elementary School,PK - 5,2025,49.5,41.0,25.8,,41.8606386,-87.7934215
06-016-0980-02-2002,Karel Havlicek Elem School,Berwyn North SD 98,Cook,Elementary School,PK - 5,2025,47.3,34.7,26.4,,41.86031,-87.78478
06-016-0980-02-2003,Jefferson Elem School,Berwyn North SD 98,Cook,Elementary School,PK - 5,2025,50.5,41.0,14.2,,41.8582,-87.801
06-016-0990-02-0000,,Cicero SD 99,Cook,,,2025,31.8,22.8,25.8,,,
06-016-0990-02-1002,Unity Jr High School,Cicero SD 99,Cook,Middle/Junior High School,8-Jul,2025,29.5,16.5,23.0,,43.1743,-76.10406
06-016-0990-02-2001,Daniel Burnham Elem School,Cicero SD 99,Cook,Elementary School,K - 2,2025,,,30.9,,41.8621,-87.771957
06-016-0990-02-2002,Cicero East Elem School,Cicero SD 99,Cook,Elementary School,6-Apr,2025,34.8,25.9,22.4,,41.8382,-87.75
06-016-0990-02-2003,Columbus  East Elem School,Cicero SD 99,Cook,Elementary School,6-Apr,2025,33.0,19.6,20.0,,41.835929,-87.758799
06-016-0990-02-2004,Drexel Elem School,Cicero SD 99,Cook,Elementary School,K - 6,2025,29.9,28.0,31.4,,41.8271939,-87.758856
06-016-0990-02-2005,Goodwin Elementary School,Cicero SD 99,Cook,Elementary School,PK - 6,2025,31.6,24.0,29.0,,41.8426103,-87.7731473
06-016-0990-02-2006,Abe Lincoln Elem School,Cicero SD 99,Cook,Elementary School,PK - 6,2025,44.5,30.4,26.2,,41.82753,-87.77506
06-016-0990-02-2008,T Roosevelt Elem School,Cicero SD 99,Cook,Elementary School,6-Mar,2025,26.3,22.2,26.5,,41.8599401,-87.749627
06-016-0990-02-2009,Sherlock Elem School,Cicero SD 99,Cook,Elementary School,PK - 6,2025,31.7,25.0,26.2,,41.8500429,-87.7585
06-016-0990-02-2010,Woodrow Wilson Elem School,Cicero SD 99,Cook,Elementary School,K - 6,2025,31.7,17.5,27.5,,41.8481326,-87.7664618
06-016-0990-02-2012,Warren Park School,Cicero SD 99,Cook,Elementary School,PK - 6,2025,34.0,29.2,17.5,,41.86448,-87.77506
06-016-0990-02-2013,Liberty Elem School,Cicero SD 99,Cook,Elementary School,PK - 3,2025,36.7,46.9,31.8,,41.8641129,-87.7494395
06-016-0990-02-2014,Cicero West Elementary School,Cicero SD 99,Cook,Elementary School,PK - 3,2025,26.4,31.2,31.1,,41.8491397,-87.7480547
06-016-0990-02-2015,Columbus West Elementary School,Cicero SD 99,Cook,Elementary School,PK - 3,2025,27.3,40.6,31.5,,41.8491397,-87.7480547
06-016-0990-02-3001,District 99 Early Childhood Center,Cicero SD 99,Cook,Special School,PK,2025,,,,,41.8294359,-87.7578182
06-016-1000-02-0000,,Berwyn South SD 100,Cook,,,2025,46.4,34.4,27.3,,,
06-016-1000-02-1002,Heritage Middle School,Berwyn South SD 100,Cook,Middle/Junior High School,8-Jun,2025,55.5,40.3,26.8,,41.8434053,-87.7908556
06-016-1000-02-1003,Freedom Middle School,Berwyn South SD 100,Cook,Middle/Junior High School,8-Jun,2025,41.4,20.6,34.9,,41.836987,-87.783734
06-016-1000-02-2001,Emerson Elem School,Berwyn South SD 100,Cook,Elementary School,K - 5,2025,42.1,30.2,30.3,,41.8354896,-87.7963019
06-016-1000-02-2003,Irving Elem School,Berwyn South SD 100,Cook,Elementary School,PK - 5,2025,44.7,46.2,25.5,,41.828183,-87.795919
06-016-1000-02-2004,Komensky Elem School,Berwyn South SD 100,Cook,Elementary School,PK - 5,2025,35.7,30.7,28.2,,41.8445798,-87.7818062
06-016-1000-02-2006,Pershing Elem School,Berwyn South SD 100,Cook,Elementary School,PK - 5,2025,46.5,46.5,27.6,,41.8253531,-87.786945
06-016-1000-02-2007,Piper School,Berwyn South SD 100,Cook,Elementary School,K - 5,2025,56.5,42.9,20.5,,41.84559,-87.79534
06-016-1000-02-2008,Hiawatha Elem School,Berwyn South SD 100,Cook,Elementary School,PK - 5,2025,43.0,30.5,20.3,,41.8437489,-87.7879226
06-016-1010-02-0000,,Western Springs SD 101,Cook,,,2025,84.0,71.5,5.3,,,
06-016-1010-02-1006,McClure Jr High School,Western Springs SD 101,Cook,Middle/Junior High School,8-Jun,2025,89.2,69.2,7.8,,41.804444,-87.898449
06-016-1010-02-2001,Field Park Elem School,Western Springs SD 101,Cook,Elementary School,K - 5,2025,83.2,83.9,,,41.8115055,-87.8947622
06-016-1010-02-2002,Forest Hills Elem School,Western Springs SD 101,Cook,Elementary School,PK - 5,2025,88.3,75.5,,,41.7980214,-87.9050052
06-016-1010-02-2005,John Laidlaw Elem School,Western Springs SD 101,Cook,Elementary School,K - 5,2025,69.1,64.7,6.4,,41.8146993,-87.9078839
06-016-1020-02-0000,,La Grange SD 102,Cook,,,2025,77.3,66.4,8.5,,,
06-016-1020-02-1004,Park Junior High School,La Grange SD 102,Cook,Middle/Junior High School,8-Jul,2025,83.6,64.7,11.2,,41.820053,-87.880385
06-016-1020-02-2001,Congress Park Elem School,La Grange SD 102,Cook,Elementary School,K - 6,2025,53.2,44.6,11.0,,41.8123868,-87.8539435
06-016-1020-02-2002,Cossitt Ave Elem School,La Grange SD 102,Cook,Elementary School,K - 6,2025,79.0,79.7,7.4,,41.81281,-87.87173
06-016-1020-02-2003,Forest Road Elem School,La Grange SD 102,Cook,Elementary School,6-Jan,2025,73.0,60.4,9.3,,41.83142,-87.86756
06-016-1020-02-2007,Ogden Ave Elem School,La Grange SD 102,Cook,Elementary School,K - 6,2025,82.4,75.8,3.7,,41.8192106,-87.8768053
06-016-1020-02-2008,Barnsdale Road School,La Grange SD 102,Cook,Elementary School,PK - K,2025,,,8.3,,41.832459,-87.866105
06-016-1030-02-0000,,Lyons SD 103,Cook,,,2025,42.0,22.5,31.1,,,
06-016-1030-02-2002,Edison Elem School,Lyons SD 103,Cook,Elementary School,PK - 5,2025,60.3,37.4,31.9,,41.8169027,-87.7867746
06-016-1030-02-2004,Home Elem School,Lyons SD 103,Cook,Elementary School,PK - 5,2025,54.2,22.9,21.4,,41.8105631,-87.7974937
06-016-1030-02-2005,Lincoln Elem School,Lyons SD 103,Cook,Elementary School,PK - 5,2025,40.0,23.8,35.0,,42.877342,-97.4005575
06-016-1030-02-2006,J W Robinson Jr Elem School,Lyons SD 103,Cook,Elementary School,K - 5,2025,44.2,30.8,24.3,,41.8133716,-87.8163322
06-016-1030-02-2007,Washington Middle School,Lyons SD 103,Cook,Elementary School,8-Jun,2025,35.2,17.3,34.9,,41.818,-87.8224
06-016-1030-02-2008,Costello School,Lyons SD 103,Cook,Elementary School,PK - 5,2025,47.1,24.8,30.0,,41.8067,-87.8283
06-016-1050-02-0000,,La Grange SD 105 South,Cook,,,2025,71.3,58.3,15.4,,,
06-016-1050-02-1001,Wm F Gurrie Middle School,La Grange SD 105 South,Cook,Middle/Junior High School,8-Jul,2025,71.1,53.5,14.8,,41.794708,-87.874288
06-016-1050-02-2002,Hodgkins Elem School,La Grange SD 105 South,Cook,Elementary School,PK - 6,2025,47.2,50.9,39.3,,41.7711056,-87.8533704
06-016-1050-02-2003,Ideal Elem School,La Grange SD 105 South,Cook,Elementary School,K - 6,2025,50.0,34.7,22.5,,41.7841311,-87.8661593
06-016-1050-02-2004,Seventh Ave Elem School,La Grange SD 105 South,Cook,Elementary School,K - 6,2025,88.8,74.8,10.6,,41.8005799,-87.8657745
06-016-1050-02-2005,Spring Ave Elem School,La Grange SD 105 South,Cook,Elementary School,K - 6,2025,86.3,77.7,4.1,,41.79499,-87.87451
06-016-1060-02-0000,,LaGrange Highlands SD 106,Cook,,,2025,86.5,75.0,7.7,,,
06-016-1060-02-1003,Highlands Middle School,LaGrange Highlands SD 106,Cook,Middle/Junior High School,8-May,2025,87.0,70.9,8.4,,41.781891,-87.892731
06-016-1060-02-2001,Highlands Elem School,LaGrange Highlands SD 106,Cook,Elementary School,PK - 4,2025,85.6,83.2,7.1,,38.733772,-89.66847
06-016-1070-02-0000,,Pleasantdale SD 107,Cook,,,2025,83.9,73.1,12.4,,,
06-016-1070-02-1001,Pleasantdale Middle Sch,Pleasantdale SD 107,Cook,Middle/Junior High School,8-May,2025,87.6,71.4,13.4,,40.8097071,-74.2618861
06-016-1070-02-2002,Pleasantdale Elementary School,Pleasantdale SD 107,Cook,Elementary School,PK - 4,2025,76.8,76.3,11.6,,40.79112,-96.93197
06-016-2000-13-0000,,Oak Park - River Forest SD 200,Cook,,,2025,78.9,64.1,19.0,96.8,,
06-016-2000-13-0001,Oak Park & River Forest High Sch,Oak Park - River Forest SD 200,Cook,High School,12-Sep,2025,78.9,64.1,19.0,96.8,41.891842005724,-87.82178597889
06-016-2010-17-0000,,J S Morton HSD 201,Cook,,,2025,33.9,16.9,31.3,83.6,,
06-016-2010-17-0001,J Sterling Morton East High Sch,J S Morton HSD 201,Cook,High School,12-Oct,2025,28.6,15.5,31.8,82.9,41.8464514,-87.7730688
06-016-2010-17-0002,J Sterling Morton West High Sch,J S Morton HSD 201,Cook,High School,12-Sep,2025,40.7,18.7,31.7,85.3,41.8463951,-87.7999611
06-016-2010-17-0003,J Sterling Morton Freshman Cntr,J S Morton HSD 201,Cook,High School,9,2025,,,27.9,,31.977711512,34.979217692
06-016-2040-17-0000,,Lyons Twp HSD 204,Cook,,,2025,72.5,62.3,24.0,95.1,,
06-016-2040-17-0001,Lyons Twp High Sch,Lyons Twp HSD 204,Cook,High School,12-Sep,2025,72.5,62.3,24.0,95.1,41.7751,-87.85962
06-016-2080-17-0000,,Riverside-Brookfield Twp SD 208,Cook,,,2025,71.5,59.8,20.3,95.1,,
06-016-2080-17-0001,Riverside Brookfield Twp HS,Riverside-Brookfield Twp SD 208,Cook,High School,12-Sep,2025,71.5,59.8,20.3,95.1,41.82869,-87.83055
06-016-2090-17-0000,,Proviso Twp HSD 209,Cook,,,2025,30.2,20.5,47.9,85.8,,
06-016-2090-17-0001,Proviso East High School,Proviso Twp HSD 209,Cook,High School,12-Sep,2025,12.8,5.5,52.1,83.2,41.88031,-87.83312
06-016-2090-17-0002,Proviso West High School,Proviso Twp HSD 209,Cook,High School,12-Sep,2025,21.3,11.4,56.0,82.4,41.86781,-87.90006
06-016-2090-17-0003,Proviso Math and Science Academy,Proviso Twp HSD 209,Cook,High School,12-Sep,2025,65.4,52.8,24.4,99.1,41.8650805,-87.832567
06-016-2120-16-0000,,Leyden CHSD 212,Cook,,,2025,43.3,31.8,33.1,88.2,,
06-016-2120-16-0001,East Leyden High School,Leyden CHSD 212,Cook,High School,12-Sep,2025,45.4,33.4,34.8,85.3,41.94224,-87.86703
06-016-2120-16-0002,West Leyden High School,Leyden CHSD 212,Cook,High School,12-Sep,2025,41.0,30.0,31.2,91.1,41.927116,-87.90543
06-016-2340-16-0000,,Ridgewood CHSD 234,Cook,,,2025,57.9,38.9,30.0,93.7,,
06-016-2340-16-0001,Ridgewood Comm High School,Ridgewood CHSD 234,Cook,High School,12-Sep,2025,57.9,38.9,30.0,93.7,41.53559,-88.04034
06-016-4010-26-0000,,Elmwood Park CUSD 401,Cook,,,2025,59.2,37.4,29.5,90.6,,
06-016-4010-26-0001,Elmwood Park High School,Elmwood Park CUSD 401,Cook,High School,12-Sep,2025,54.0,35.0,43.0,90.6,41.9216975,-87.8303524
06-016-4010-26-1001,Elm Middle School,Elmwood Park CUSD 401,Cook,Middle/Junior High School,8-Jun,2025,65.3,28.7,24.4,,41.9132673,-87.8162921
06-016-4010-26-2003,Elmwood Elem School,Elmwood Park CUSD 401,Cook,Elementary School,K - 5,2025,52.5,51.0,14.8,,41.922466,-87.815455
06-016-4010-26-2004,John Mills Elem School,Elmwood Park CUSD 401,Cook,Elementary School,PK - 5,2025,57.9,43.4,25.8,,41.9319507,-87.8164997
07-016-1040-02-0000,,Summit SD 104,Cook,,,2025,42.1,30.2,17.8,,,
07-016-1040-02-1001,Heritage Middle School,Summit SD 104,Cook,Middle/Junior High School,8-Jun,2025,42.0,26.4,17.1,,41.782877,-87.805035
07-016-1040-02-2001,Dr Donald Wharton Elem School,Summit SD 104,Cook,Elementary School,K - 5,2025,59.6,40.4,15.7,,41.7746814,-87.8099617
07-016-1040-02-2003,Otis P Graves Elem School,Summit SD 104,Cook,Elementary School,PK - 5,2025,32.5,34.3,17.3,,41.782749,-87.804792
07-016-1040-02-2004,W W Walker Elem School,Summit SD 104,Cook,Elementary School,K - 5,2025,38.2,26.3,16.7,,41.7707511,-87.8148262
07-016-1040-02-2005,Walsh Elem School,Summit SD 104,Cook,Elementary School,K - 5,2025,52.8,37.1,22.3,,41.7884729,-87.8091543
07-016-1080-02-0000,,Willow Springs SD 108,Cook,,,2025,51.6,36.0,29.4,,,
07-016-1080-02-2001,Willow Springs Elem School,Willow Springs SD 108,Cook,Elementary School,PK - 8,2025,51.6,36.0,29.4,,35.593013,-78.727922
07-016-1090-02-0000,,Indian Springs SD 109,Cook,,,2025,55.3,35.7,25.3,,,
07-016-1090-02-1006,Geo T Wilkins Jr High School,Indian Springs SD 109,Cook,Middle/Junior High School,8-Jul,2025,53.6,36.0,29.2,,41.744827,-87.822637
07-016-1090-02-2001,Bridgeview Elem School,Indian Springs SD 109,Cook,Elementary School,K - 6,2025,51.1,32.4,22.0,,30.761075,-88.1587739
07-016-1090-02-2002,Frank A Brodnicki Elem School,Indian Springs SD 109,Cook,Elementary School,K - 6,2025,67.5,46.4,23.3,,41.7535896,-87.8360775
07-016-1090-02-2004,Robina Lyle Elementary School,Indian Springs SD 109,Cook,Elementary School,K - 6,2025,56.4,25.7,22.9,,41.7545116,-87.814977
07-016-1090-02-2006,George T Wilkins Elem School,Indian Springs SD 109,Cook,Elementary School,K - 6,2025,41.8,28.6,29.0,,41.181148,-89.360367
07-016-1090-02-3001,Gladness V Player Early Childhood Center,Indian Springs SD 109,Cook,Special School,PK,2025,,,,,41.73544,-87.819577
07-016-1100-02-0000,,Central Stickney SD 110,Cook,,,2025,59.9,49.4,19.0,,,
07-016-1100-02-2002,Charles J Sahs Elem School,Central Stickney SD 110,Cook,Elementary School,PK - 8,2025,59.9,49.4,19.0,,41.80142,-87.757
07-016-1110-02-0000,,Burbank SD 111,Cook,,,2025,43.8,26.1,18.8,,,
07-016-1110-02-1001,Liberty Junior High School,Burbank SD 111,Cook,Middle/Junior High School,8-Jun,2025,38.9,18.8,19.2,,41.7458853,-87.7681614
07-016-1110-02-2001,Luther Burbank Elem School,Burbank SD 111,Cook,Elementary School,K - 5,2025,47.4,32.7,18.8,,41.7425487,-87.7571423
07-016-1110-02-2002,Richard Byrd Elementary School,Burbank SD 111,Cook,Elementary School,K - 5,2025,55.8,28.3,15.5,,41.7425588,-87.7458097
07-016-1110-02-2005,J B Kennedy Elem School,Burbank SD 111,Cook,Elementary School,K - 5,2025,49.4,41.6,21.4,,41.75309,-87.762
07-016-1110-02-2006,Maddock Elementary School,Burbank SD 111,Cook,Elementary School,K - 5,2025,40.1,26.2,26.0,,41.74142,-87.79505
07-016-1110-02-2007,F B Mccord Elem School,Burbank SD 111,Cook,Elementary School,PK,2025,,,,,41.73809,-87.78533
07-016-1110-02-2010,Edward J Tobin Elem School,Burbank SD 111,Cook,Elementary School,K - 5,2025,52.7,43.5,12.0,,41.73698,-87.77894
07-016-1110-02-2011,Harry E Fry School,Burbank SD 111,Cook,Elementary School,K - 5,2025,48.5,26.7,17.1,,41.7494513,-87.7772216
07-016-113A-02-0000,,Lemont-Bromberek CSD 113A,Cook,,,2025,75.4,66.1,10.1,,,
07-016-113A-02-1002,Old Quarry Middle Sch,Lemont-Bromberek CSD 113A,Cook,Middle/Junior High School,8-Jun,2025,84.7,65.2,11.0,,41.6545183,-88.0142596
07-016-113A-02-2002,Oakwood School,Lemont-Bromberek CSD 113A,Cook,Elementary School,PK - 1,2025,,,11.1,,41.67288171671,-88.00259008445
07-016-113A-02-2004,River Valley School,Lemont-Bromberek CSD 113A,Cook,Elementary School,3-Feb,2025,64.9,73.4,6.3,,41.658359,-87.997079
07-016-113A-02-2005,Central School,Lemont-Bromberek CSD 113A,Cook,Elementary School,5-Apr,2025,67.4,63.6,11.7,,41.6725,-87.9966
07-016-1170-02-0000,,North Palos SD 117,Cook,,,2025,85.7,73.4,9.3,,,
07-016-1170-02-1001,H H Conrady Jr High School,North Palos SD 117,Cook,Middle/Junior High School,8-Jun,2025,89.7,73.2,8.2,,41.8668245,-88.0923836
07-016-1170-02-2002,Dorn Elementary School,North Palos SD 117,Cook,Elementary School,PK - 1,2025,,,9.9,,31.977711512,34.979217692
07-016-1170-02-2003,Glen Oaks Elem School,North Palos SD 117,Cook,Elementary School,5-Feb,2025,83.2,70.8,7.3,,41.7261727,-87.8366612
07-016-1170-02-2004,Oak Ridge Elem School,North Palos SD 117,Cook,Elementary School,5-Feb,2025,80.5,75.7,10.1,,36.017715727116,-84.283995716626
07-016-1170-02-2005,Dr Kenneth M Sorrick School,North Palos SD 117,Cook,Elementary School,PK - 1,2025,,,14.1,,40.523712243363,-89.629928643539
07-016-1180-04-0000,,Palos CCSD 118,Cook,,,2025,82.2,63.3,11.5,,,
07-016-1180-04-1004,Palos South Middle School,Palos CCSD 118,Cook,Middle/Junior High School,8-Jun,2025,88.7,60.9,14.7,,41.65087,-87.82061
07-016-1180-04-2002,Palos East Elementary School,Palos CCSD 118,Cook,Elementary School,K - 5,2025,72.4,59.0,9.2,,41.6619,-87.8082
07-016-1180-04-2003,Palos West Elementary School,Palos CCSD 118,Cook,Elementary School,PK - 5,2025,79.8,73.5,10.4,,41.65864,-87.87561
07-016-1220-02-0000,,Ridgeland SD 122,Cook,,,2025,60.7,38.7,12.9,,,
07-016-1220-02-1005,Simmons Middle School,Ridgeland SD 122,Cook,Middle/Junior High School,8-Jun,2025,61.7,27.5,15.6,,41.7205462,-87.782112
07-016-1220-02-2001,Columbus Manor Elem School,Ridgeland SD 122,Cook,Elementary School,K - 5,2025,73.1,55.6,9.4,,41.7151399,-87.7681166
07-016-1220-02-2002,Ernest F Kolb Elem School,Ridgeland SD 122,Cook,Elementary School,K - 5,2025,43.6,43.0,19.9,,41.7171231,-87.7877594
07-016-1220-02-2003,Harnew Elem School,Ridgeland SD 122,Cook,Elementary School,PK - 5,2025,60.9,50.2,12.5,,42.12528,-87.88056
07-016-1220-02-2004,George W Lieb Elem School,Ridgeland SD 122,Cook,Elementary School,K - 5,2025,60.7,47.5,4.1,,41.7258239,-87.7907725
07-016-1230-02-0000,,Oak Lawn-Hometown SD 123,Cook,,,2025,64.8,37.8,16.2,,,
07-016-1230-02-1001,Oak Lawn-Hometown Middle Sch,Oak Lawn-Hometown SD 123,Cook,Middle/Junior High School,8-Jun,2025,69.1,34.8,18.7,,41.7118289,-87.753361
07-016-1230-02-2003,J Covington Elem School,Oak Lawn-Hometown SD 123,Cook,Elementary School,K - 5,2025,51.5,29.7,18.2,,41.726102,-87.751376
07-016-1230-02-2006,J M Hannum Elem School,Oak Lawn-Hometown SD 123,Cook,Elementary School,K - 5,2025,55.4,41.2,13.7,,41.7142449,-87.7279582
07-016-1230-02-2007,Hometown Elem School,Oak Lawn-Hometown SD 123,Cook,Elementary School,K - 5,2025,63.2,33.3,13.5,,41.7310343,-87.7319496
07-016-1230-02-2008,Kolmar Avenue Elem School,Oak Lawn-Hometown SD 123,Cook,Elementary School,K - 5,2025,70.2,55.0,11.9,,41.732119786507,-87.735252030342
07-016-1230-02-2010,Sward Elem School,Oak Lawn-Hometown SD 123,Cook,Elementary School,K - 5,2025,62.8,46.2,16.3,,41.7131383,-87.7448195
07-016-1230-02-3001,School District 123 Early Learning Center,Oak Lawn-Hometown SD 123,Cook,Special School,PK,2025,,,,,41.7320431,-87.732363
07-016-1240-02-0000,,Evergreen Park ESD 124,Cook,,,2025,49.0,35.9,15.7,,,
07-016-1240-02-1001,Central Middle School,Evergreen Park ESD 124,Cook,Middle/Junior High School,8-Jun,2025,43.6,25.2,17.5,,41.7221941,-87.7035139
07-016-1240-02-2002,Northeast Elem School,Evergreen Park ESD 124,Cook,Elementary School,PK - 5,2025,43.4,31.7,17.8,,41.7287228,-87.692595
07-016-1240-02-2003,Northwest School,Evergreen Park ESD 124,Cook,Elementary School,PK - 5,2025,55.9,56.9,14.5,,41.72698,-87.71255
07-016-1240-02-2004,Southeast Elem School,Evergreen Park ESD 124,Cook,Elementary School,K - 5,2025,47.3,43.2,15.8,,41.714838,-87.694828
07-016-1240-02-2005,Southwest Elem School,Evergreen Park ESD 124,Cook,Elementary School,K - 5,2025,73.0,59.6,10.7,,41.7128262,-87.7117162
07-016-1250-02-0000,,Atwood Heights SD 125,Cook,,,2025,45.9,18.0,19.1,,,
07-016-1250-02-1001,Hamlin Upper Grade Center,Atwood Heights SD 125,Cook,Middle/Junior High School,8-Jun,2025,60.8,15.9,17.0,,41.6716907,-87.7156478
07-016-1250-02-2003,Lawn Manor School,Atwood Heights SD 125,Cook,Elementary School,PK - 2,2025,,,26.0,,41.6817,-87.71922
07-016-1250-02-2004,Meadow Lane School,Atwood Heights SD 125,Cook,Elementary School,5-Mar,2025,31.7,20.1,15.2,,41.512329192666,-87.651817918745
07-016-1260-02-0000,,Alsip-Hazlgrn-Oaklwn SD 126,Cook,,,2025,54.0,28.0,22.1,,,
07-016-1260-02-1005,Prairie Jr High School,Alsip-Hazlgrn-Oaklwn SD 126,Cook,Middle/Junior High School,8-Jul,2025,60.1,27.9,27.0,,32.000835,-102.085861
07-016-1260-02-2001,Hazelgreen Elem School,Alsip-Hazlgrn-Oaklwn SD 126,Cook,Elementary School,K - 6,2025,49.4,27.0,18.6,,41.678794,-87.745013
07-016-1260-02-2002,Lane Elem School,Alsip-Hazlgrn-Oaklwn SD 126,Cook,Elementary School,K - 6,2025,43.0,27.8,22.4,,41.6692887,-87.7335094
07-016-1260-02-2004,Stony Creek Elem School,Alsip-Hazlgrn-Oaklwn SD 126,Cook,Elementary School,K - 6,2025,55.3,28.6,21.3,,41.67976,-87.72894
07-016-1260-02-3001,District 126 Early Childhood Center,Alsip-Hazlgrn-Oaklwn SD 126,Cook,Special School,PK,2025,,,,,41.670816,-87.733881
07-016-1270-02-0000,,Worth SD 127,Cook,,,2025,59.4,30.0,32.7,,,
07-016-1270-02-1005,Worth Jr High School,Worth SD 127,Cook,Middle/Junior High School,8-Jun,2025,77.0,30.5,35.0,,41.688863,-87.790937
07-016-1270-02-2001,Worth Elem School,Worth SD 127,Cook,Elementary School,PK - 5,2025,41.0,29.8,31.6,,41.6888243,-87.7886605
07-016-1270-02-2004,Worthwoods Elem School,Worth SD 127,Cook,Elementary School,K - 5,2025,43.9,29.2,31.7,,41.6913088,-87.8031336
07-016-1275-02-0000,,Chicago Ridge SD 127-5,Cook,,,2025,38.9,26.6,26.9,,,
07-016-1275-02-1001,Elden D Finley Jr High School,Chicago Ridge SD 127-5,Cook,Middle/Junior High School,8-Jun,2025,38.5,24.7,31.3,,41.6952169,-87.7732869
07-016-1275-02-2003,Ridge Central Elem School,Chicago Ridge SD 127-5,Cook,Elementary School,PK - 5,2025,46.4,26.3,22.3,,41.6958376,-87.7718624
07-016-1275-02-2004,Ridge Lawn Elementary School,Chicago Ridge SD 127-5,Cook,Elementary School,PK - 5,2025,31.1,30.9,27.3,,41.7011513,-87.7635858
07-016-1280-02-0000,,Palos Heights SD 128,Cook,,,2025,76.9,52.9,13.1,,,
07-016-1280-02-1003,Independence Jr High School,Palos Heights SD 128,Cook,Middle/Junior High School,8-Jun,2025,86.0,48.9,17.7,,41.668041,-87.7990051
07-016-1280-02-2002,Chippewa Elem School,Palos Heights SD 128,Cook,Elementary School,3-Jan,2025,73.5,79.5,7.6,,41.6656794,-87.7678914
07-016-1280-02-2005,Navajo Heights Elem School,Palos Heights SD 128,Cook,Elementary School,5-Apr,2025,66.3,45.3,10.3,,41.6663551,-87.7872566
07-016-1280-02-2006,Indian Hill,Palos Heights SD 128,Cook,Elementary School,PK - K,2025,,,22.7,,41.5017,-87.64782
07-016-1300-02-0000,,Cook County SD 130,Cook,,,2025,38.3,21.1,28.0,,,
07-016-1300-02-1001,Everett F Kerr Middle School,Cook County SD 130,Cook,Middle/Junior High School,8-Jun,2025,45.3,17.5,27.5,,41.6583843,-87.6848357
07-016-1300-02-1002,Nathan Hale Middle School,Cook County SD 130,Cook,Middle/Junior High School,8-Jun,2025,38.2,19.9,22.5,,41.6484,-87.749
07-016-1300-02-1003,Veterans Memorial Middle Sch,Cook County SD 130,Cook,Middle/Junior High School,8-Jun,2025,34.0,15.1,30.9,,41.6694,-87.6838
07-016-1300-02-2004,Nathan Hale Intermediate,Cook County SD 130,Cook,Elementary School,5-Apr,2025,43.2,24.3,15.9,,41.648228,-87.750297
07-016-1300-02-2008,Paul Revere Intermediate School,Cook County SD 130,Cook,Elementary School,5-Apr,2025,32.9,16.2,25.0,,41.895420064403,-87.646158327883
07-016-1300-02-2010,Whittier Elementary School,Cook County SD 130,Cook,Elementary School,5-Apr,2025,38.6,20.7,24.5,,41.613798,-87.652362
07-016-1300-02-2011,Lincoln Elem School,Cook County SD 130,Cook,Elementary School,K - 3,2025,39.5,55.8,30.9,,41.6338946,-87.6621997
07-016-1300-02-2012,Nathan Hale Primary School,Cook County SD 130,Cook,Elementary School,PK - 3,2025,32.5,28.8,28.6,,41.6474981,-87.7508738
07-016-1300-02-2018,Paul Revere Primary School,Cook County SD 130,Cook,Elementary School,K - 3,2025,38.5,24.8,33.4,,41.668988,-87.677319
07-016-1300-02-2019,George Washington Elementary Sch,Cook County SD 130,Cook,Elementary School,K - 5,2025,37.6,20.3,33.0,,42.005783,-87.846278
07-016-1300-02-3001,Horace Mann School,Cook County SD 130,Cook,Special School,PK,2025,,,,,41.7485565,-87.5750936
07-016-1320-02-0000,,Calumet Public SD 132,Cook,,,2025,31.7,7.8,37.6,,,
07-016-1320-02-2001,Burr Oak Elem School,Calumet Public SD 132,Cook,Elementary School,5-Mar,2025,25.6,11.1,34.9,,41.6675529,-87.6577411
07-016-1320-02-2002,Calumet Elem School,Calumet Public SD 132,Cook,Elementary School,8-Jun,2025,37.3,4.7,36.0,,35.6015729,-98.1217132
07-016-1320-02-2003,Burr Oak Academy,Calumet Public SD 132,Cook,Elementary School,PK - 2,2025,,,42.6,,43.4564119,-99.0793382
07-016-1330-02-0000,,Gen George Patton SD 133,Cook,,,2025,15.3,11.1,58.9,,,
07-016-1330-02-2001,Gen George Patton Elem School,Gen George Patton SD 133,Cook,Elementary School,PK - 8,2025,15.3,11.1,58.9,,39.469597,-87.559252
07-016-1350-02-0000,,Orland SD 135,Cook,,,2025,69.7,48.9,12.2,,,
07-016-1350-02-1004,Orland Jr High School,Orland SD 135,Cook,Middle/Junior High School,8-Jun,2025,67.9,44.4,9.4,,41.6197238,-87.8619067
07-016-1350-02-1005,Jerling Junior High School,Orland SD 135,Cook,Middle/Junior High School,8-Jun,2025,74.7,40.7,9.4,,41.6161129,-87.83527
07-016-1350-02-1006,Century Junior High School,Orland SD 135,Cook,Middle/Junior High School,8-Jun,2025,70.7,48.1,15.6,,41.5994314,-87.8840379
07-016-1350-02-2001,High Point Elem School,Orland SD 135,Cook,Elementary School,5-Mar,2025,69.2,64.4,8.4,,41.620791,-87.862175
07-016-1350-02-2002,Orland Park Elem School,Orland SD 135,Cook,Elementary School,PK - 2,2025,,,16.8,,41.630725,-87.862698
07-016-1350-02-2007,Prairie Elem School,Orland SD 135,Cook,Elementary School,PK - 2,2025,,,13.4,,41.633569,-87.820906
07-016-1350-02-2008,Liberty Elem School,Orland SD 135,Cook,Elementary School,5-Mar,2025,64.1,48.7,10.9,,41.6136,-87.83476
07-016-1350-02-2010,Orland Center School,Orland SD 135,Cook,Elementary School,PK - 2,2025,,,17.0,,41.6156,-87.8498
07-016-1350-02-2012,Centennial School,Orland SD 135,Cook,Elementary School,PK - 2,2025,,,13.7,,41.6172805,-87.8536601
07-016-1350-02-2013,Meadow Ridge School,Orland SD 135,Cook,Elementary School,5-Mar,2025,71.1,50.5,11.6,,41.599526,-87.8856277
07-016-1400-02-0000,,Kirby SD 140,Cook,,,2025,63.9,56.6,15.2,,,
07-016-1400-02-1003,Virgil I Grissom Middle School,Kirby SD 140,Cook,Middle/Junior High School,8-Jun,2025,71.2,55.3,19.8,,41.608936,-86.136017
07-016-1400-02-1004,Prairie View Middle School,Kirby SD 140,Cook,Middle/Junior High School,8-Jun,2025,65.6,54.4,18.9,,41.5737973,-87.8261198
07-016-1400-02-2001,Fernway Park Elem School,Kirby SD 140,Cook,Elementary School,PK - 5,2025,61.5,63.6,16.0,,41.58853,-87.833585
07-016-1400-02-2004,Helen Keller Elem School,Kirby SD 140,Cook,Elementary School,PK - 5,2025,53.7,42.8,15.8,,41.5957031,-87.8093261
07-016-1400-02-2005,John A Bannes Elem School,Kirby SD 140,Cook,Elementary School,PK - 5,2025,58.0,61.8,9.7,,41.584438,-87.796199
07-016-1400-02-2006,Christa McAuliffe School,Kirby SD 140,Cook,Elementary School,PK - 5,2025,55.0,52.9,11.6,,41.57537,-87.8355
07-016-1400-02-2007,Millennium Elem School,Kirby SD 140,Cook,Elementary School,PK - 5,2025,66.4,70.3,11.5,,41.566624,-87.825487
07-016-1420-02-0000,,Forest Ridge SD 142,Cook,,,2025,55.6,41.3,21.5,,,
07-016-1420-02-1001,Jack Hille Middle School,Forest Ridge SD 142,Cook,Middle/Junior High School,8-Jun,2025,52.9,33.3,24.0,,41.619057,-87.7621878
07-016-1420-02-2002,Ridge Early Childhood Center,Forest Ridge SD 142,Cook,Elementary School,PK - K,2025,,,27.2,,41.6209,-87.7453
07-016-1420-02-2003,Lee R Foster Elem School,Forest Ridge SD 142,Cook,Elementary School,5-Jan,2025,63.4,52.8,19.4,,32.9213412,-96.7069055
07-016-1420-02-2004,Kerkstra Elem School,Forest Ridge SD 142,Cook,Elementary School,5-Jan,2025,53.1,45.3,18.9,,41.620421,-87.7475292
07-016-1430-02-0000,,Midlothian SD 143,Cook,,,2025,38.9,20.3,25.0,,,
07-016-1430-02-2001,Central Park Elem School,Midlothian SD 143,Cook,Elementary School,K - 8,2025,37.6,20.0,27.2,,41.6175937,-87.7086169
07-016-1430-02-2002,Kolmar Elem School,Midlothian SD 143,Cook,Elementary School,K - 8,2025,36.5,15.1,22.3,,41.63253,-87.73061
07-016-1430-02-2004,Springfield Elem School,Midlothian SD 143,Cook,Elementary School,K - 5,2025,49.0,35.1,25.7,,41.6269317,-87.7156907
07-016-1430-02-3002,Spaulding School,Midlothian SD 143,Cook,Special School,PK,2025,,,,,41.6234392,-87.7009297
07-016-1435-02-0000,,Posen-Robbins ESD 143-5,Cook,,,2025,50.3,24.4,13.1,,,
07-016-1435-02-1003,Kellar School,Posen-Robbins ESD 143-5,Cook,Middle/Junior High School,8-Jun,2025,49.9,21.0,14.3,,41.63614,-87.70422
07-016-1435-02-2001,Childs Elem School,Posen-Robbins ESD 143-5,Cook,Elementary School,K - 3,2025,57.1,62.9,12.0,,31.977711512,34.979217692
07-016-1435-02-2006,Posen Elem School,Posen-Robbins ESD 143-5,Cook,Elementary School,5-Apr,2025,52.1,20.2,11.3,,41.628826,-87.688121
07-016-1435-02-2007,Turner Elem School,Posen-Robbins ESD 143-5,Cook,Elementary School,PK - K,2025,,,,,31.977711512,34.979217692
07-016-1435-02-2010,Gordon School,Posen-Robbins ESD 143-5,Cook,Elementary School,K - 3,2025,44.7,37.6,13.0,,41.6361,-87.6881
07-016-1440-02-0000,,Prairie-Hills ESD 144,Cook,,,2025,26.7,14.0,31.2,,,
07-016-1440-02-1002,Prairie-Hills Junior High School,Prairie-Hills ESD 144,Cook,Middle/Junior High School,8-Jun,2025,27.9,11.7,24.1,,41.5924,-87.6889
07-016-1440-02-2003,Fieldcrest Elem School,Prairie-Hills ESD 144,Cook,Elementary School,PK - 5,2025,31.7,26.0,36.0,,42.474182,-89.00164
07-016-1440-02-2004,Highlands Elem School,Prairie-Hills ESD 144,Cook,Elementary School,PK - 5,2025,23.1,15.4,37.6,,46.816456,-100.811575
07-016-1440-02-2005,Markham Park Elem School,Prairie-Hills ESD 144,Cook,Elementary School,PK - 5,2025,20.5,,31.6,,41.5945424,-87.7063366
07-016-1440-02-2007,Nob Hill Elem School,Prairie-Hills ESD 144,Cook,Elementary School,PK - 5,2025,34.7,17.8,40.9,,42.474182,-89.00164
07-016-1440-02-2009,Chateaux School,Prairie-Hills ESD 144,Cook,Elementary School,PK - 5,2025,23.9,17.1,35.4,,42.269523,-89.085967
07-016-1440-02-2010,Mae Jemison School,Prairie-Hills ESD 144,Cook,Elementary School,PK - 5,2025,18.2,14.4,35.6,,42.269523,-89.085967
07-016-1440-02-2011,Prairie-Hills STEAM Academy,Prairie-Hills ESD 144,Cook,Elementary School,PK - 5,2025,49.2,24.6,14.6,,39.51864,-92.73797
07-016-1450-02-0000,,Arbor Park SD 145,Cook,,,2025,45.7,30.8,19.4,,,
07-016-1450-02-1001,Arbor Park Middle School,Arbor Park SD 145,Cook,Middle/Junior High School,8-May,2025,48.7,28.2,21.0,,41.60227,-87.73827
07-016-1450-02-2002,Kimberly Heights Elementary School,Arbor Park SD 145,Cook,Elementary School,PK - K,2025,,,19.0,,41.590365,-87.769714
07-016-1450-02-2003,Scarlet Oak Elementary School,Arbor Park SD 145,Cook,Elementary School,4-Mar,2025,39.6,36.3,15.5,,41.6072246,-87.7600714
07-016-1450-02-2004,Arbor Elementary School,Arbor Park SD 145,Cook,Elementary School,2-Jan,2025,,,20.2,,42.662778,-73.7509362
07-016-1460-04-0000,,CCSD 146,Cook,,,2025,63.3,42.5,19.6,,,
07-016-1460-04-1001,Central Middle School,CCSD 146,Cook,Middle/Junior High School,8-Jun,2025,65.6,32.5,24.3,,41.7221941,-87.7035139
07-016-1460-04-2002,Bert H Fulton School,CCSD 146,Cook,Elementary School,PK - 5,2025,64.0,49.4,12.9,,41.58031,-87.77922
07-016-1460-04-2003,Memorial Elem School,CCSD 146,Cook,Elementary School,PK - 5,2025,68.0,48.5,20.4,,39.54665,-89.29423
07-016-1460-04-2005,Walter F Fierke Ed Center,CCSD 146,Cook,Elementary School,PK - 5,2025,50.2,49.5,15.9,,41.609263,-87.778922
07-016-1460-04-2006,Arnold W Kruse Ed Center,CCSD 146,Cook,Elementary School,PK - 5,2025,64.2,60.0,20.6,,41.61077,-87.80517
07-016-1470-02-0000,,W Harvey-Dixmoor PSD 147,Cook,,,2025,23.0,5.9,41.1,,,
07-016-1470-02-1001,Rosa L Parks Middle School,W Harvey-Dixmoor PSD 147,Cook,Middle/Junior High School,8-May,2025,21.2,3.8,34.5,,41.6233,-87.6663
07-016-1470-02-2004,Lincoln Elem School,W Harvey-Dixmoor PSD 147,Cook,Elementary School,PK - K,2025,,,47.5,,41.6338946,-87.6621997
07-016-1470-02-2007,Martin L King Elem School,W Harvey-Dixmoor PSD 147,Cook,Elementary School,4-Jan,2025,26.4,10.2,46.0,,41.62556,-87.66611
07-016-1480-02-0000,,Dolton SD 148,Cook,,,2025,25.8,11.0,44.2,,,
07-016-1480-02-1002,Roosevelt Junior High School,Dolton SD 148,Cook,Middle/Junior High School,8-Jul,2025,30.1,13.5,36.0,,41.88614,-87.86423
07-016-1480-02-1003,Lincoln Junior High School,Dolton SD 148,Cook,Middle/Junior High School,8-Jul,2025,26.2,,47.0,,42.0245776,-87.7542824
07-016-1480-02-1004,Washington Junior High,Dolton SD 148,Cook,Middle/Junior High School,8-Jul,2025,26.1,15.1,34.4,,40.02658989984,-84.993621335714
07-016-1480-02-2002,Riverdale School,Dolton SD 148,Cook,Elementary School,K - 4,2025,38.6,22.8,43.0,,41.636936,-87.613128
07-016-1480-02-2003,Lincoln Elementary School,Dolton SD 148,Cook,Elementary School,K - 6,2025,22.8,5.2,48.8,,41.638278,-87.604738
07-016-1480-02-2005,Roosevelt Elem School,Dolton SD 148,Cook,Elementary School,K - 6,2025,19.9,11.3,38.8,,44.89469,-97.11257
07-016-1480-02-2006,Washington Elem School,Dolton SD 148,Cook,Elementary School,K - 6,2025,18.9,10.1,52.3,,44.34971,-98.22148
07-016-1480-02-2007,Franklin Elementary School,Dolton SD 148,Cook,Elementary School,K - 6,2025,20.3,11.7,42.6,,41.6276968,-87.6068021
07-016-1480-02-2010,Park Elementary School,Dolton SD 148,Cook,Elementary School,K - 6,2025,42.7,19.7,42.4,,41.63643,-87.62743
07-016-1480-02-3002,Early Childhood Cntr,Dolton SD 148,Cook,Special School,PK,2025,,,,,41.631858,-87.6187792
07-016-1490-02-0000,,Dolton SD 149,Cook,,,2025,24.4,10.4,30.6,,,
07-016-1490-02-1004,S T E M Academy,Dolton SD 149,Cook,Middle/Junior High School,8,2025,32.4,7.5,34.6,,43.4564119,-99.0793382
07-016-1490-02-1005,Creative Communications Acad,Dolton SD 149,Cook,Middle/Junior High School,6,2025,24.9,6.2,22.0,,41.638919,-87.60747
07-016-1490-02-1006,School of Fine Arts,Dolton SD 149,Cook,Middle/Junior High School,7,2025,18.6,8.1,38.8,,41.616537,-87.566452
07-016-1490-02-2002,Diekman Elem School,Dolton SD 149,Cook,Elementary School,PK - 5,2025,26.8,16.8,33.9,,41.62003,-87.58227
07-016-1490-02-2005,Caroline Sibley Elem School,Dolton SD 149,Cook,Elementary School,K - 5,2025,19.8,9.4,29.4,,41.623292,-87.562687
07-016-1490-02-2006,Berger-Vandenberg Elem School,Dolton SD 149,Cook,Elementary School,K - 5,2025,26.8,10.1,46.1,,41.6249687,-87.586705
07-016-1490-02-2009,Carol Moseley Braun School,Dolton SD 149,Cook,Elementary School,K - 5,2025,27.3,23.5,11.7,,41.61688,-87.56513
07-016-1490-02-2010,New Beginnings Learning Academy,Dolton SD 149,Cook,Elementary School,K - 5,2025,18.6,11.4,31.6,,41.610401,-87.57181
07-016-1500-02-0000,,South Holland SD 150,Cook,,,2025,44.7,24.9,23.7,,,
07-016-1500-02-1005,McKinley Jr High School,South Holland SD 150,Cook,Middle/Junior High School,8-Jun,2025,49.6,20.8,15.1,,39.21504,-88.749639
07-016-1500-02-2001,Greenwood Elem School,South Holland SD 150,Cook,Elementary School,PK - 3,2025,20.5,19.3,31.6,,41.59041,-87.5908266
07-016-1500-02-2002,McKinley Elem School,South Holland SD 150,Cook,Elementary School,5-Apr,2025,48.0,34.2,24.3,,41.5866684,-87.5968049
07-016-1510-02-0000,,South Holland SD 151,Cook,,,2025,42.8,27.8,30.9,,,
07-016-1510-02-1001,Coolidge Middle School,South Holland SD 151,Cook,Middle/Junior High School,8-Jun,2025,43.9,18.2,35.9,,41.6005436,-87.6040852
07-016-1510-02-2002,Eisenhower School,South Holland SD 151,Cook,Elementary School,3-Feb,2025,35.0,45.8,23.8,,41.60531,-87.58921
07-016-1510-02-2004,Madison School,South Holland SD 151,Cook,Elementary School,5-Apr,2025,45.0,33.8,18.9,,41.610848,-87.6050182
07-016-1510-02-2006,Taft School,South Holland SD 151,Cook,Elementary School,PK - 1,2025,,,43.8,,41.6005436,-87.6040852
07-016-1520-02-0000,,Harvey SD 152,Cook,,,2025,28.4,17.6,32.5,,,
07-016-1520-02-1001,Brooks Middle School,Harvey SD 152,Cook,Middle/Junior High School,8-Jun,2025,30.5,12.9,32.0,,41.439003,-87.678233
07-016-1520-02-2001,Bryant Elem School,Harvey SD 152,Cook,Elementary School,PK - 5,2025,43.0,40.0,37.5,,41.621358,-87.6438027
07-016-1520-02-2002,Maya Angelou Elem Sch,Harvey SD 152,Cook,Elementary School,PK - 5,2025,17.9,8.9,38.6,,41.6036255,-87.6597458
07-016-1520-02-2004,Holmes Elem School,Harvey SD 152,Cook,Elementary School,PK - 5,2025,15.1,18.6,25.1,,41.5985686,-87.6391162
07-016-1520-02-2008,Whittier Elem School,Harvey SD 152,Cook,Elementary School,PK - 5,2025,23.6,18.0,28.1,,41.613798,-87.652362
07-016-1520-02-3001,Riley Early Childhood Center,Harvey SD 152,Cook,Special School,,2025,,,,,41.598737,-87.66246
07-016-1525-02-0000,,Hazel Crest SD 152-5,Cook,,,2025,18.4,8.1,32.6,,,
07-016-1525-02-2001,Barack H Obama Learning Academy,Hazel Crest SD 152-5,Cook,Elementary School,PK - 8,2025,18.4,4.8,33.5,,41.5911123,-87.6542524
07-016-1525-02-2005,Jesse C White Learning Academy,Hazel Crest SD 152-5,Cook,Elementary School,PK - 8,2025,18.3,11.7,31.7,,41.58224,-87.6752933
07-016-1530-02-0000,,Homewood SD 153,Cook,,,2025,58.2,34.4,22.3,,,
07-016-1530-02-1003,James Hart School,Homewood SD 153,Cook,Middle/Junior High School,8-Jun,2025,63.1,31.4,21.0,,41.558759,-87.642353
07-016-1530-02-2002,Winston Churchill School,Homewood SD 153,Cook,Elementary School,5-Mar,2025,52.4,37.9,20.2,,41.54489,-87.64658
07-016-1530-02-2005,Willow School,Homewood SD 153,Cook,Elementary School,PK - 2,2025,,,26.2,,41.55392,-87.65893
07-016-1540-02-0000,,Thornton SD 154,Cook,,,2025,42.7,33.3,21.0,,,
07-016-1540-02-2002,Wolcott School,Thornton SD 154,Cook,Elementary School,PK - 8,2025,42.7,33.3,21.0,,41.570378,-87.615106
07-016-1545-02-0000,,Burnham SD 154-5,Cook,,,2025,37.1,19.6,14.4,,,
07-016-1545-02-2001,Burnham Elem School,Burnham SD 154-5,Cook,Elementary School,K - 8,2025,37.1,19.6,14.4,,41.64196,-87.541458
07-016-1550-02-0000,,Calumet City SD 155,Cook,,,2025,23.2,14.3,30.1,,,
07-016-1550-02-1001,Wentworth Jr High School,Calumet City SD 155,Cook,Middle/Junior High School,8-Jun,2025,26.5,15.3,23.6,,41.615525,-87.529904
07-016-1550-02-2002,Wilson Elementary School,Calumet City SD 155,Cook,Elementary School,PK - 2,2025,,,37.7,,41.61976,-87.5306
07-016-1550-02-2004,Wentworth Intermediate School,Calumet City SD 155,Cook,Elementary School,5-Mar,2025,20.1,13.4,29.3,,41.62116,-87.545432
07-016-1560-02-0000,,Lincoln ESD 156,Cook,,,2025,48.1,20.4,27.9,,,
07-016-1560-02-2001,Lincoln Elem School,Lincoln ESD 156,Cook,Elementary School,PK - 8,2025,48.1,20.4,27.9,,40.5779768,-90.0350266
07-016-1570-02-0000,,Hoover-Schrum Memorial SD 157,Cook,,,2025,27.9,10.1,32.9,,,
07-016-1570-02-1001,Schrum Memorial School,Hoover-Schrum Memorial SD 157,Cook,Middle/Junior High School,8-Jun,2025,31.3,7.5,36.9,,41.601146,-87.548932
07-016-1570-02-2001,Hoover Elem School,Hoover-Schrum Memorial SD 157,Cook,Elementary School,PK - 5,2025,24.3,12.7,30.7,,45.120004,-103.26865
07-016-1580-02-0000,,Lansing SD 158,Cook,,,2025,39.5,21.4,25.0,,,
07-016-1580-02-1004,Memorial Jr High School,Lansing SD 158,Cook,Middle/Junior High School,8-Jun,2025,37.1,15.8,28.3,,41.5634666,-87.5505089
07-016-1580-02-2001,Coolidge Elementary School,Lansing SD 158,Cook,Elementary School,K - 5,2025,41.5,23.8,20.1,,41.57115,-87.53393
07-016-1580-02-2005,Oak Glen Elem School,Lansing SD 158,Cook,Elementary School,K - 5,2025,37.6,27.0,24.3,,41.563868,-87.566093
07-016-1580-02-2006,Reavis Elem School,Lansing SD 158,Cook,Elementary School,K - 5,2025,49.0,32.5,27.0,,41.584,-87.5365
07-016-1580-02-3001,Lester Crawl Primary Ctr,Lansing SD 158,Cook,Special School,PK - 1,2025,,,,,41.56202,-87.54148
07-016-1590-02-0000,,ESD 159,Cook,,,2025,30.8,14.4,23.5,,,
07-016-1590-02-1001,Colin Powell Middle Sch,ESD 159,Cook,Middle/Junior High School,8-Jun,2025,29.7,10.5,26.7,,41.5153898,-87.7392383
07-016-1590-02-2002,Sieden Prairie Elementary School,ESD 159,Cook,Elementary School,PK - 5,2025,26.0,10.5,27.0,,41.5130034,-87.7489461
07-016-1590-02-2004,Neil Armstrong Elem School,ESD 159,Cook,Elementary School,K - 5,2025,37.7,21.5,18.7,,42.05013,-88.11663
07-016-1590-02-2005,Woodgate Elem School,ESD 159,Cook,Elementary School,PK - 5,2025,43.9,27.6,24.4,,41.52457,-87.74981
07-016-1590-02-2006,Marya Yates Elementary School,ESD 159,Cook,Elementary School,K - 5,2025,21.6,15.7,17.0,,41.5216521,-87.765004
07-016-1600-02-0000,,Country Club Hills SD 160,Cook,,,2025,27.1,12.3,37.6,,,
07-016-1600-02-1001,Southwood Middle School,Country Club Hills SD 160,Cook,Middle/Junior High School,8-Jun,2025,25.8,12.4,34.3,,41.5507298,-87.7291928
07-016-1600-02-2003,Zenon J Sykuta  School,Country Club Hills SD 160,Cook,Elementary School,PK - 2,2025,,,41.9,,41.56253,-87.72088
07-016-1600-02-2004,Meadowview  School,Country Club Hills SD 160,Cook,Elementary School,5-Mar,2025,28.4,12.2,36.9,,41.56476,-87.7306
07-016-1610-02-0000,,Flossmoor SD 161,Cook,,,2025,59.1,35.1,14.5,,,
07-016-1610-02-1003,Parker Junior High School,Flossmoor SD 161,Cook,Middle/Junior High School,8-Jun,2025,58.3,26.5,18.0,,40.188431043901,-85.198070871874
07-016-1610-02-2001,Flossmoor Hills Elem School,Flossmoor SD 161,Cook,Elementary School,PK - 5,2025,65.1,50.9,8.8,,41.548313,-87.707096
07-016-1610-02-2002,Heather Hill Elem School,Flossmoor SD 161,Cook,Elementary School,K - 5,2025,53.8,40.2,14.2,,41.5346898,-87.6843724
07-016-1610-02-2006,Serena Hills Elem School,Flossmoor SD 161,Cook,Elementary School,K - 5,2025,47.9,28.4,15.5,,41.548313,-87.707096
07-016-1610-02-2007,Western Avenue Elem School,Flossmoor SD 161,Cook,Elementary School,PK - 5,2025,67.9,52.4,11.6,,41.534798530156,-87.674606871009
07-016-1620-02-0000,,Matteson ESD 162,Cook,,,2025,44.8,27.3,14.5,,,
07-016-1620-02-1004,O W Huth Middle School,Matteson ESD 162,Cook,Middle/Junior High School,8-Jul,2025,45.8,23.9,11.6,,41.502029,-87.705902
07-016-1620-02-2001,Arcadia Elem School,Matteson ESD 162,Cook,Elementary School,K - 4,2025,45.0,37.0,8.2,,39.736158602535,-90.219742241235
07-016-1620-02-2003,Indiana Elem School,Matteson ESD 162,Cook,Elementary School,6-Apr,2025,50.8,25.5,11.6,,41.5022324,-87.7009799
07-016-1620-02-2005,Matteson Elem School,Matteson ESD 162,Cook,Elementary School,K - 3,2025,29.0,35.5,20.2,,41.5022324,-87.7009799
07-016-1620-02-2008,Sauk Elem School,Matteson ESD 162,Cook,Elementary School,6-Apr,2025,37.7,21.0,27.2,,41.5022324,-87.7009799
07-016-1620-02-2009,Illinois School,Matteson ESD 162,Cook,Elementary School,K - 8,2025,53.0,29.2,12.2,,41.5007812,-87.7130983
07-016-1620-02-2010,Richton Square School,Matteson ESD 162,Cook,Elementary School,PK,2025,,,,,41.493107049046,-87.711371849482
07-016-1630-02-0000,,Park Forest - Chicago Heights School District 163,Cook,,,2025,39.9,18.4,27.5,,,
07-016-1630-02-1010,Michelle Obama Sch of Technology and the Arts,Park Forest - Chicago Heights School District 163,Cook,Middle/Junior High School,8-Jun,2025,38.1,10.2,14.8,,41.501481,-87.641605
07-016-1630-02-2002,Barack Obama Sch of Leadership and STEM,Park Forest - Chicago Heights School District 163,Cook,Elementary School,6-Apr,2025,43.7,19.0,31.0,,41.4976371,-87.6614684
07-016-1630-02-2003,Blackhawk Primary Center,Park Forest - Chicago Heights School District 163,Cook,Elementary School,K - 3,2025,34.2,42.1,36.2,,41.47139,-87.68669
07-016-1630-02-2007,Mohawk Primary Center,Park Forest - Chicago Heights School District 163,Cook,Elementary School,K - 3,2025,41.3,38.1,36.0,,41.501481,-87.641605
07-016-1630-02-2008,21st Century Primary Center,Park Forest - Chicago Heights School District 163,Cook,Elementary School,K - 3,2025,29.8,42.6,28.6,,41.4772,-87.6822
07-016-1630-02-3001,Algonquin Primary Center,Park Forest - Chicago Heights School District 163,Cook,Special School,PK,2025,,,,,41.501481,-87.641605
07-016-1670-02-0000,,Brookwood SD 167,Cook,,,2025,34.7,13.1,22.6,,,
07-016-1670-02-1002,Brookwood Jr High School,Brookwood SD 167,Cook,Middle/Junior High School,8-Jul,2025,50.7,11.8,25.8,,33.2573282,-87.318309
07-016-1670-02-2001,Brookwood Middle School,Brookwood SD 167,Cook,Elementary School,6-May,2025,28.6,,31.8,,33.21068,-87.28239
07-016-1670-02-2003,Longwood Elem School,Brookwood SD 167,Cook,Elementary School,PK - 4,2025,26.3,22.6,13.6,,41.55498,-87.630305
07-016-1670-02-2004,Hickory Bend Elem School,Brookwood SD 167,Cook,Elementary School,K - 4,2025,26.1,24.2,22.7,,41.54115,-87.59504
07-016-1680-04-0000,,CCSD 168,Cook,,,2025,25.7,6.1,31.8,,,
07-016-1680-04-1003,Rickover Jr High School,CCSD 168,Cook,Middle/Junior High School,8-Jun,2025,25.8,4.2,32.0,,32.000835,-102.085861
07-016-1680-04-2001,Strassburg Elem,CCSD 168,Cook,Elementary School,5-Mar,2025,25.6,7.6,28.9,,41.483759,-87.566322
07-016-1680-04-2002,Wagoner Elem,CCSD 168,Cook,Elementary School,PK - 2,2025,,,34.7,,41.4963312,-87.5702405
07-016-1690-02-0000,,Ford Heights SD 169,Cook,,,2025,25.3,6.0,30.8,,,
07-016-1690-02-1001,Cottage Grove Upper Grade Center,Ford Heights SD 169,Cook,Middle/Junior High School,8-May,2025,30.1,,,,41.5061329,-87.59686
07-016-1690-02-2002,Medgar Evers Primary Academic Center,Ford Heights SD 169,Cook,Elementary School,PK - 4,2025,16.3,,48.1,,41.5062675,-87.5933226
07-016-1700-02-0000,,Chicago Heights SD 170,Cook,,,2025,39.7,23.9,32.6,,,
07-016-1700-02-1002,Chicago Heights Middle School,Chicago Heights SD 170,Cook,Middle/Junior High School,8-Jun,2025,35.9,15.7,34.5,,41.5119244,-87.6457279
07-016-1700-02-2001,Washington-McKinley Elem Sch,Chicago Heights SD 170,Cook,Elementary School,K - 5,2025,30.1,30.1,29.4,,41.501738,-87.641222
07-016-1700-02-2002,Roosevelt Elem School,Chicago Heights SD 170,Cook,Elementary School,K - 5,2025,42.6,24.8,32.4,,41.5067,-87.65171
07-016-1700-02-2005,Wilson Elem School,Chicago Heights SD 170,Cook,Elementary School,K - 5,2025,47.1,35.7,33.8,,41.500924,-87.660571
07-016-1700-02-2007,Garfield Elem School,Chicago Heights SD 170,Cook,Elementary School,K - 5,2025,33.3,34.3,37.3,,41.4941829,-87.6318979
07-016-1700-02-2008,U S Grant Elem School,Chicago Heights SD 170,Cook,Elementary School,K - 5,2025,52.2,44.8,29.3,,41.4892471,-87.640713
07-016-1700-02-2009,Greenbriar Elem School,Chicago Heights SD 170,Cook,Elementary School,K - 5,2025,61.1,40.0,14.5,,41.5246675,-87.6460605
07-016-1700-02-2011,Jefferson Elem School,Chicago Heights SD 170,Cook,Elementary School,K - 5,2025,46.3,16.4,32.9,,41.5111547,-87.6322796
07-016-1700-02-2012,Kennedy Elem School,Chicago Heights SD 170,Cook,Elementary School,K - 5,2025,48.7,35.5,42.1,,41.5129111,-87.6638803
07-016-1700-02-2013,Lincoln Elem School,Chicago Heights SD 170,Cook,Elementary School,K - 5,2025,50.0,47.2,31.0,,41.50365,-87.62949
07-016-1710-02-0000,,Sunnybrook SD 171,Cook,,,2025,45.5,14.2,23.1,,,
07-016-1710-02-1001,Heritage Middle School,Sunnybrook SD 171,Cook,Middle/Junior High School,8-May,2025,51.7,12.6,26.2,,41.8354931,-87.7956991
07-016-1710-02-2001,Nathan Hale Elem School,Sunnybrook SD 171,Cook,Elementary School,PK - 4,2025,30.6,18.0,19.9,,41.7804956,-87.7769643
07-016-1720-02-0000,,Sandridge SD 172,Cook,,,2025,19.2,12.9,36.6,,,
07-016-1720-02-2001,Sandridge Elem School,Sandridge SD 172,Cook,Elementary School,PK - 8,2025,19.2,12.9,36.6,,34.6635,-77.2013
07-016-1940-02-0000,,Steger SD 194,Cook,,,2025,50.6,22.7,26.6,,,
07-016-1940-02-1001,Columbia Central School,Steger SD 194,Cook,Middle/Junior High School,8-May,2025,60.4,18.0,29.7,,41.459795,-87.63875
07-016-1940-02-2002,Steger Intermediate Center,Steger SD 194,Cook,Elementary School,4-Feb,2025,31.5,32.0,25.3,,41.475208,-87.636888
07-016-1940-02-2005,Steger Primary Center,Steger SD 194,Cook,Elementary School,PK - 1,2025,,,22.4,,41.477696,-87.639687
07-016-2050-17-0000,,Thornton Twp HSD 205,Cook,,,2025,22.2,11.0,47.0,80.6,,
07-016-2050-17-0001,Thornton Township High School,Thornton Twp HSD 205,Cook,High School,12-Sep,2025,21.0,9.9,48.5,79.0,41.61642,-87.64421
07-016-2050-17-0002,Thornridge High School,Thornton Twp HSD 205,Cook,High School,12-Sep,2025,18.0,6.6,54.3,78.8,41.62115,-87.59921
07-016-2050-17-0003,Thornwood High School,Thornton Twp HSD 205,Cook,High School,12-Sep,2025,25.2,14.3,41.7,82.8,41.58392,-87.60477
07-016-2060-17-0000,,Bloom Twp HSD 206,Cook,,,2025,23.8,13.1,45.4,89.6,,
07-016-2060-17-0001,Bloom High School,Bloom Twp HSD 206,Cook,High School,12-Sep,2025,24.3,14.4,47.0,91.3,41.51476,-87.64366
07-016-2060-17-0002,Bloom Trail High School,Bloom Twp HSD 206,Cook,High School,12-Sep,2025,23.0,11.4,43.1,87.1,41.48392,-87.59449
07-016-2100-17-0000,,Lemont Twp HSD 210,Cook,,,2025,78.5,70.6,23.7,97.9,,
07-016-2100-17-0001,Lemont Twp High School,Lemont Twp HSD 210,Cook,High School,12-Sep,2025,78.5,70.6,23.7,97.9,41.67614,-87.99117
07-016-2150-17-0000,,Thornton Fractional Twp HSD 215,Cook,,,2025,34.4,16.6,18.9,89.9,,
07-016-2150-17-0001,Thornton Fractnl No High School,Thornton Fractional Twp HSD 215,Cook,High School,12-Sep,2025,31.4,15.6,18.9,86.6,41.61457,-87.54391
07-016-2150-17-0002,Thornton Fractnl So High School,Thornton Fractional Twp HSD 215,Cook,High School,12-Sep,2025,36.7,17.4,18.9,92.7,41.5586676,-87.5404111
07-016-2170-16-0000,,Argo CHSD 217,Cook,,,2025,43.6,35.2,23.7,87.1,,
07-016-2170-16-0001,Argo Community High School,Argo CHSD 217,Cook,High School,12-Sep,2025,43.6,35.2,23.7,87.1,41.7748665,-87.8045347
07-016-2180-16-0000,,CHSD 218,Cook,,,2025,37.3,27.2,31.4,80.4,,
07-016-2180-16-0001,DD Eisenhower High Sch (Campus),CHSD 218,Cook,High School,12-Sep,2025,31.6,20.5,36.7,78.0,41.02556,-88.307489
07-016-2180-16-0004,H L Richards High Sch(Campus),CHSD 218,Cook,High School,12-Sep,2025,40.8,28.5,27.9,78.1,41.6993872,-87.7593053
07-016-2180-16-0007,A B Shepard High Sch (Campus),CHSD 218,Cook,High School,12-Sep,2025,39.7,32.4,29.6,84.6,41.02556,-88.307489
07-016-2200-17-0000,,Reavis Twp HSD 220,Cook,,,2025,41.6,28.3,24.5,91.0,,
07-016-2200-17-0001,Reavis High School,Reavis Twp HSD 220,Cook,High School,12-Sep,2025,41.6,28.3,24.5,91.0,41.7521698,-87.7727709
07-016-2270-17-0000,,Rich Twp HSD 227,Cook,,,2025,23.1,7.7,53.4,90.1,,
07-016-2270-17-0002,Rich Township High School,Rich Twp HSD 227,Cook,High School,12-Sep,2025,23.1,7.7,53.4,90.1,41.5193308,-87.6907774
07-016-2280-16-0000,,Bremen CHSD 228,Cook,,,2025,34.9,23.5,30.8,90.3,,
07-016-2280-16-0001,Bremen High School,Bremen CHSD 228,Cook,High School,12-Sep,2025,32.8,16.2,35.8,90.0,33.7177,-85.1389
07-016-2280-16-0002,Tinley Park High School,Bremen CHSD 228,Cook,High School,12-Sep,2025,46.3,31.7,24.7,91.7,41.572519,-87.767074
07-016-2280-16-0003,Hillcrest High School,Bremen CHSD 228,Cook,High School,12-Sep,2025,17.4,10.1,38.9,87.7,41.5741634,-87.7107321
07-016-2280-16-0004,Oak Forest High School,Bremen CHSD 228,Cook,High School,12-Sep,2025,44.4,38.0,23.4,91.8,41.6155754,-87.7535637
07-016-2290-16-0000,,Oak Lawn CHSD 229,Cook,,,2025,48.3,36.3,19.7,91.8,,
07-016-2290-16-0001,Oak Lawn Comm High School,Oak Lawn CHSD 229,Cook,High School,12-Sep,2025,48.3,36.3,19.7,91.8,41.722144,-87.770516
07-016-2300-13-0000,,Cons HSD 230,Cook,,,2025,59.3,51.2,19.1,95.2,,
07-016-2300-13-0001,Carl Sandburg High School,Cons HSD 230,Cook,High School,12-Sep,2025,64.1,56.8,18.2,96.0,41.6489283,-87.8564335
07-016-2300-13-0002,Amos Alonzo Stagg High School,Cons HSD 230,Cook,High School,12-Sep,2025,52.5,43.9,21.3,93.1,41.6879,-87.8186
07-016-2300-13-0003,Victor J Andrew High School,Cons HSD 230,Cook,High School,12-Sep,2025,60.9,52.6,17.5,96.6,41.615549,-87.849106
07-016-2310-16-0000,,Evergreen Park CHSD 231,Cook,,,2025,48.9,40.2,24.2,95.5,,
07-016-2310-16-0001,Evergreen Park High School,Evergreen Park CHSD 231,Cook,High School,12-Sep,2025,48.9,40.2,24.2,95.5,41.712479,-87.6991154
07-016-2330-16-0000,,Homewood Flossmoor CHSD 233,Cook,,,2025,49.8,33.3,32.6,95.3,,
07-016-2330-16-0001,Homewood-Flossmoor High School,Homewood Flossmoor CHSD 233,Cook,High School,12-Sep,2025,49.8,33.3,32.6,95.3,41.546143,-87.6914433
07-016-9010-25-0000,,Southland College Prep Charter High School,Cook,,,2025,67.4,39.3,7.7,96.6,,
07-016-9010-25-001C,Southland College Prep Charter High School,Southland College Prep Charter High School,Cook,High School,12-Sep,2025,67.4,39.3,7.7,96.6,31.977711512,34.979217692
15-016-2990-25-0000,,Chicago Public Schools District 299,Cook,,,2025,42.0,27.0,40.1,82.5,,
15-016-2990-25-0001,Amundsen High School,Chicago Public Schools District 299,Cook,High School,12-Sep,2025,70.3,50.6,52.4,88.9,41.9925538,-87.6639278
15-016-2990-25-0003,Bogan High School,Chicago Public Schools District 299,Cook,High School,12-Sep,2025,10.3,,62.5,69.9,41.9925538,-87.6639278
15-016-2990-25-0006,Carver Military Academy HS,Chicago Public Schools District 299,Cook,High School,12-Sep,2025,15.3,,60.2,91.1,41.6565,-87.589
15-016-2990-25-0011,Farragut Career Academy HS,Chicago Public Schools District 299,Cook,High School,12-Sep,2025,25.0,,72.0,74.3,41.849562,-87.708282
15-016-2990-25-0012,Fenger Academy High School,Chicago Public Schools District 299,Cook,High School,12-Sep,2025,,,82.0,60.4,41.9925538,-87.6639278
15-016-2990-25-0013,Foreman High School,Chicago Public Schools District 299,Cook,High School,12-Sep,2025,11.6,,69.0,60.4,41.9925538,-87.6639278
15-016-2990-25-0014,Back of The Yards IB HS,Chicago Public Schools District 299,Cook,High School,12-Sep,2025,48.5,28.3,48.7,88.0,41.9925538,-87.6639278
15-016-2990-25-0015,Gage Park High School,Chicago Public Schools District 299,Cook,High School,12-Sep,2025,,,87.0,67.5,41.9925538,-87.6639278
15-016-2990-25-0016,Harlan Community Academy HS,Chicago Public Schools District 299,Cook,High School,12-Sep,2025,,,76.6,54.3,41.71868,-87.62157
15-016-2990-25-0019,Hirsch Metropolitan High School,Chicago Public Schools District 299,Cook,High School,12-Sep,2025,,,81.7,50.0,41.754,-87.6019
15-016-2990-25-0020,Hubbard High School,Chicago Public Schools District 299,Cook,High School,12-Sep,2025,31.8,8.7,75.0,81.6,41.9925538,-87.6639278
15-016-2990-25-0021,Hyde Park Academy High School,Chicago Public Schools District 299,Cook,High School,12-Sep,2025,11.5,,73.0,77.6,41.9925538,-87.6639278
15-016-2990-25-0022,Thomas Kelly College Preparatory,Chicago Public Schools District 299,Cook,High School,12-Sep,2025,23.3,9.8,63.6,73.6,41.8185864,-87.6948117
15-016-2990-25-0023,Kelvyn Park High School,Chicago Public Schools District 299,Cook,High School,12-Jul,2025,11.0,,74.1,72.5,41.9925538,-87.6639278
15-016-2990-25-0024,Kennedy High School,Chicago Public Schools District 299,Cook,High School,12-Sep,2025,35.6,15.6,63.4,81.4,41.9925538,-87.6639278
15-016-2990-25-0025,Kenwood Academy High School,Chicago Public Schools District 299,Cook,High School,12-Jul,2025,70.4,52.9,48.3,91.1,41.9925538,-87.6639278
15-016-2990-25-0026,Lake View High School,Chicago Public Schools District 299,Cook,High School,12-Sep,2025,34.9,14.1,67.7,81.5,41.9925538,-87.6639278
15-016-2990-25-0027,Lane Technical High School,Chicago Public Schools District 299,Cook,High School,12-Jul,2025,91.4,87.5,34.3,97.5,41.9925538,-87.6639278
15-016-2990-25-0029,Marshall Metropolitan High School,Chicago Public Schools District 299,Cook,High School,12-Sep,2025,,,84.9,59.1,41.87893,-87.70706
15-016-2990-25-0030,Mather High School,Chicago Public Schools District 299,Cook,High School,12-Sep,2025,32.8,19.8,62.4,74.6,41.9925538,-87.6639278
15-016-2990-25-0031,Morgan Park High School,Chicago Public Schools District 299,Cook,High School,12-Jul,2025,34.3,9.9,67.0,86.5,41.9925538,-87.6639278
15-016-2990-25-0034,Phillips Academy High School,Chicago Public Schools District 299,Cook,High School,12-Sep,2025,12.0,,86.6,67.8,41.9925538,-87.6639278
15-016-2990-25-0035,Roosevelt High School,Chicago Public Schools District 299,Cook,High School,12-Sep,2025,22.7,7.1,70.8,74.3,41.9925538,-87.6639278
15-016-2990-25-0036,Schurz High School,Chicago Public Schools District 299,Cook,High School,12-Sep,2025,18.3,12.5,72.9,78.7,41.9925538,-87.6639278
15-016-2990-25-0037,Senn High School,Chicago Public Schools District 299,Cook,High School,12-Sep,2025,44.9,26.3,69.1,81.5,41.9925538,-87.6639278
15-016-2990-25-0039,King College Prep High School,Chicago Public Schools District 299,Cook,High School,12-Sep,2025,36.9,14.7,66.3,95.9,41.8139411,-87.6029138
15-016-2990-25-0041,Steinmetz College Prep HS,Chicago Public Schools District 299,Cook,High School,12-Sep,2025,17.1,5.8,73.8,69.3,41.9355955,-87.7843338
15-016-2990-25-0042,Sullivan High School,Chicago Public Schools District 299,Cook,High School,12-Sep,2025,12.4,11.3,76.5,66.8,41.9925538,-87.6639278
15-016-2990-25-0043,Taft High School,Chicago Public Schools District 299,Cook,High School,12-Jul,2025,56.6,37.6,62.4,86.9,41.9925538,-87.6639278
15-016-2990-25-0044,Tilden Career Communty Academy HS,Chicago Public Schools District 299,Cook,High School,12-Sep,2025,,,79.3,56.3,41.9925538,-87.6639278
15-016-2990-25-0046,Von Steuben Metro Science HS,Chicago Public Schools District 299,Cook,High School,12-Sep,2025,65.9,45.1,41.0,97.9,41.9925538,-87.6639278
15-016-2990-25-0047,Lincoln Park High School,Chicago Public Schools District 299,Cook,High School,12-Sep,2025,74.2,50.2,57.6,89.0,41.9925538,-87.6639278
15-016-2990-25-0048,Washington G High School,Chicago Public Schools District 299,Cook,High School,12-Sep,2025,29.8,10.6,67.9,88.1,41.9925538,-87.6639278
15-016-2990-25-0049,Wells Community Academy HS,Chicago Public Schools District 299,Cook,High School,12-Sep,2025,,,86.6,62.5,41.8992,-87.6683
15-016-2990-25-0052,Crane Medical Prep HS,Chicago Public Schools District 299,Cook,High School,12-Sep,2025,13.3,,81.9,88.9,41.9925538,-87.6639278
15-016-2990-25-0053,Disney II Magnet HS,Chicago Public Schools District 299,Cook,High School,12-Jul,2025,59.0,30.6,54.5,91.5,41.9925538,-87.6639278
15-016-2990-25-010C,Urban Prep Chtr Acad Englewood HS,Chicago Public Schools District 299,Cook,High School,12-Sep,2025,,,33.0,78.3,41.782,-87.6344
15-016-2990-25-012C,IHSCA Charter High School,Chicago Public Schools District 299,Cook,High School,12-Sep,2025,15.0,8.6,60.0,84.0,41.9925538,-87.6639278
15-016-2990-25-013C,Urban Prep Chtr Acad Bronzeville HS,Chicago Public Schools District 299,Cook,High School,12-Sep,2025,,,44.4,85.7,41.83087,-87.62644
15-016-2990-25-015C,EPIC Academy High School,Chicago Public Schools District 299,Cook,High School,12-Sep,2025,36.4,,66.8,78.1,41.9925538,-87.6639278
15-016-2990-25-019C,Legal Prep Academy Charter HS,Chicago Public Schools District 299,Cook,High School,12-Sep,2025,,,76.2,84.6,41.881478,-87.733528
15-016-2990-25-020C,IJLA Charter High School,Chicago Public Schools District 299,Cook,High School,12-Sep,2025,,,92.5,25.0,41.9925538,-87.6639278
15-016-2990-25-022C,Intrinsic Charter High School,Chicago Public Schools District 299,Cook,High School,12-Jul,2025,42.0,17.4,43.9,91.1,41.9925538,-87.6639278
15-016-2990-25-028C,Noble St Chtr-Pritzker College Prep,Chicago Public Schools District 299,Cook,High School,12-Sep,2025,39.2,19.8,33.1,90.8,41.9925538,-87.6639278
15-016-2990-25-029C,Noble St Chtr Rauner College Prep,Chicago Public Schools District 299,Cook,High School,12-Sep,2025,29.8,11.3,49.8,81.8,41.9925538,-87.6639278
15-016-2990-25-030C,Noble St Chtr-Rowe-Clark MS Acad,Chicago Public Schools District 299,Cook,High School,12-Sep,2025,14.1,,65.7,83.3,41.895247,-87.718067
15-016-2990-25-031C,Noble St Chtr-Golder College Prep,Chicago Public Schools District 299,Cook,High School,12-Sep,2025,32.3,16.4,51.9,91.4,41.9925538,-87.6639278
